{
"type": "FeatureCollection",
"name": "mcd_stations_plan",
"crs": { "type": "name", "properties": { "name": "urn:ogc:def:crs:OGC:1.3:CRS84" } },
"features": [
{ "type": "Feature", "properties": { "osm_id": 1789031210.0, "name_ru": "Плющево", "name_en": "Plyushchevo", "colour": "#F26522", "line_name": "D3", "year": 2021 }, "geometry": { "type": "Point", "coordinates": [ 37.7742335, 55.730893399677392 ] } },
{ "type": "Feature", "properties": { "osm_id": 1994609593.0, "name_ru": "Вешняки", "name_en": "Veshnyaki", "colour": "#F26522", "line_name": "D3", "year": 2021 }, "geometry": { "type": "Point", "coordinates": [ 37.798598277253198, 55.722470697518879 ] } },
{ "type": "Feature", "properties": { "osm_id": 1994609602.0, "name_ru": "Выхино", "name_en": "Vykhino", "colour": "#F26522", "line_name": "D3", "year": 2021 }, "geometry": { "type": "Point", "coordinates": [ 37.8172901, 55.716224499671597 ] } },
{ "type": "Feature", "properties": { "osm_id": 1994609829.0, "name_ru": "Ухтомская", "name_en": "Ukhtomskaya", "colour": "#F26522", "line_name": "D3", "year": 2021 }, "geometry": { "type": "Point", "coordinates": [ 37.864751789579472, 55.698573284412888 ] } },
{ "type": "Feature", "properties": { "osm_id": 1994609642.0, "name_ru": "Косино", "name_en": "Kosino", "colour": "#F26522", "line_name": "D3", "year": 2021 }, "geometry": { "type": "Point", "coordinates": [ 37.847911928046123, 55.705895150197435 ] } },
{ "type": "Feature", "properties": { "osm_id": 1994609723.0, "name_ru": "Панки", "name_en": "Panki", "colour": "#F26522", "line_name": "D3", "year": 2021 }, "geometry": { "type": "Point", "coordinates": [ 37.9233919, 55.66893369965306 ] } },
{ "type": "Feature", "properties": { "osm_id": 1994609821.0, "name_ru": "Томилино", "name_en": "Tomilino", "colour": "#F26522", "line_name": "D3", "year": 2021 }, "geometry": { "type": "Point", "coordinates": [ 37.954701949689039, 55.655304722132897 ] } },
{ "type": "Feature", "properties": { "osm_id": 1994609655.0, "name_ru": "Люберцы", "name_en": "Lyubertsy", "colour": "#F26522", "line_name": "D3", "year": 2021 }, "geometry": { "type": "Point", "coordinates": [ 37.89665582854046, 55.682580284500538 ] } },
{ "type": "Feature", "properties": { "osm_id": 2000431032.0, "name_ru": "Сортировочная", "name_en": "Sortirovochnaya", "colour": "#F26522", "line_name": "D3", "year": 2021 }, "geometry": { "type": "Point", "coordinates": [ 37.721013104417743, 55.763654702188731 ] } },
{ "type": "Feature", "properties": { "osm_id": 2000431037.0, "name_ru": "Электрозаводская", "name_en": "Elektrozavodskaya", "colour": "#F26522", "line_name": "D3", "year": 2021 }, "geometry": { "type": "Point", "coordinates": [ 37.705341201612278, 55.78125589776851 ] } },
{ "type": "Feature", "properties": { "osm_id": 1994609840.0, "name_ru": "Андроновка", "name_en": "Andronovka", "colour": "#F26522", "line_name": "D3", "year": 2021 }, "geometry": { "type": "Point", "coordinates": [ 37.740680637200335, 55.744762219119913 ] } },
{ "type": "Feature", "properties": { "osm_id": 141135145.0, "name_ru": "Удельная", "name_en": "Udelnaya", "colour": "#F26522", "line_name": "D3", "year": 2021 }, "geometry": { "type": "Point", "coordinates": [ 38.0444791, 55.634687099639827 ] } },
{ "type": "Feature", "properties": { "osm_id": 1994609589.0, "name_ru": "Быково", "name_en": "Bykovo", "colour": "#F26522", "line_name": "D3", "year": 2021 }, "geometry": { "type": "Point", "coordinates": [ 38.071865120491367, 55.626568078239373 ] } },
{ "type": "Feature", "properties": { "osm_id": 1994609628.0, "name_ru": "Ильинская", "name_en": "Ilyinskaya", "colour": "#F26522", "line_name": "D3", "year": 2021 }, "geometry": { "type": "Point", "coordinates": [ 38.1010303, 55.616197999632718 ] } },
{ "type": "Feature", "properties": { "osm_id": 1994609717.0, "name_ru": "Отдых", "name_en": "Otdykh", "colour": "#F26522", "line_name": "D3", "year": 2021 }, "geometry": { "type": "Point", "coordinates": [ 38.136472304364474, 55.60170039025558 ] } },
{ "type": "Feature", "properties": { "osm_id": 1994609645.0, "name_ru": "Красково", "name_en": "Kraskovo", "colour": "#F26522", "line_name": "D3", "year": 2021 }, "geometry": { "type": "Point", "coordinates": [ 37.98255710087237, 55.649905490849449 ] } },
{ "type": "Feature", "properties": { "osm_id": 1994609663.0, "name_ru": "Малаховка", "name_en": "Malakhovka", "colour": "#F26522", "line_name": "D3", "year": 2021 }, "geometry": { "type": "Point", "coordinates": [ 38.0078893, 55.645478099643988 ] } },
{ "type": "Feature", "properties": { "osm_id": 1994609868.0, "name_ru": "42 км", "name_en": "42 km", "colour": "#F26522", "line_name": "D3", "year": 2021 }, "geometry": { "type": "Point", "coordinates": [ 38.183797544027605, 55.582326536967315 ] } },
{ "type": "Feature", "properties": { "osm_id": 1994609794.0, "name_ru": "Раменское", "name_en": "Ramenskoe", "colour": "#F26522", "line_name": "D3", "year": 2021 }, "geometry": { "type": "Point", "coordinates": [ 38.2257863, 55.565192899613351 ] } },
{ "type": "Feature", "properties": { "osm_id": 1994609835.0, "name_ru": "Фабричная", "name_en": "Fabrichnaya", "colour": "#F26522", "line_name": "D3", "year": 2021 }, "geometry": { "type": "Point", "coordinates": [ 38.206729460740895, 55.572953354963239 ] } },
{ "type": "Feature", "properties": { "osm_id": 1994609647.0, "name_ru": "Кратово", "name_en": "Kratovo", "colour": "#F26522", "line_name": "D3", "year": 2021 }, "geometry": { "type": "Point", "coordinates": [ 38.159750855445154, 55.592148980631542 ] } },
{ "type": "Feature", "properties": { "osm_id": 1994609683.0, "name_ru": "Авиамоторная", "name_en": "Aviamotornaya", "colour": "#F26522", "line_name": "D3", "year": 2021 }, "geometry": { "type": "Point", "coordinates": [ 37.722069846369529, 55.750480176757726 ] } },
{ "type": "Feature", "properties": { "osm_id": 1994609871.0, "name_ru": "Ипподром", "name_en": "Ippodrom", "colour": "#F26522", "line_name": "D3", "year": 2021 }, "geometry": { "type": "Point", "coordinates": [ 38.239127526381786, 55.5606631277725 ] } },
{ "type": "Feature", "properties": { "osm_id": 1988289122.0, "name_ru": "Фирсановская", "name_en": "Firsanovskaya", "colour": "#F26522", "line_name": "D3", "year": 2021 }, "geometry": { "type": "Point", "coordinates": [ 37.251003336357293, 55.960407774800437 ] } },
{ "type": "Feature", "properties": { "osm_id": 1994671368.0, "name_ru": "Петровско-Разумовская", "name_en": "Petrovsko-Razumovskaya", "colour": "#F26522", "line_name": "D3", "year": 2021 }, "geometry": { "type": "Point", "coordinates": [ 37.568863982376271, 55.839490636122484 ] } },
{ "type": "Feature", "properties": { "osm_id": 1994671353.0, "name_ru": "Моссельмаш", "name_en": "Mosselmash", "colour": "#F26522", "line_name": "D3", "year": 2021 }, "geometry": { "type": "Point", "coordinates": [ 37.527155230614163, 55.862192202563982 ] } },
{ "type": "Feature", "properties": { "osm_id": 1994671356.0, "name_ru": "Лихоборы", "name_en": "Likhobory", "colour": "#F26522", "line_name": "D3", "year": 2021 }, "geometry": { "type": "Point", "coordinates": [ 37.552425429086917, 55.850118382807793 ] } },
{ "type": "Feature", "properties": { "osm_id": 1994671361.0, "name_ru": "Останкино", "name_en": "Ostankino", "colour": "#F26522", "line_name": "D3", "year": 2021 }, "geometry": { "type": "Point", "coordinates": [ 37.602970147246523, 55.817593483919232 ] } },
{ "type": "Feature", "properties": { "osm_id": 1994671380.0, "name_ru": "Рижская", "name_en": "Rizhskaya", "colour": "#F26522", "line_name": "D3", "year": 2021 }, "geometry": { "type": "Point", "coordinates": [ 37.639355662292722, 55.797062458495603 ] } },
{ "type": "Feature", "properties": { "osm_id": 321410218.0, "name_ru": "Левобережная", "name_en": "Levoberezhnaya", "colour": "#F26522", "line_name": "D3", "year": 2021 }, "geometry": { "type": "Point", "coordinates": [ 37.468623952369924, 55.887118422695643 ] } },
{ "type": "Feature", "properties": { "osm_id": 1994637881.0, "name_ru": "Химки", "name_en": "Khimki", "colour": "#F26522", "line_name": "D3", "year": 2021 }, "geometry": { "type": "Point", "coordinates": [ 37.452775942995679, 55.893884665538138 ] } },
{ "type": "Feature", "properties": { "osm_id": 1994671384.0, "name_ru": "Староховрино", "name_en": "Starokhovrino", "colour": "#F26522", "line_name": "D3", "year": 2021 }, "geometry": { "type": "Point", "coordinates": [ 37.5091158203617, 55.869895645160327 ] } },
{ "type": "Feature", "properties": { "osm_id": 2012486868.0, "name_ru": "Новоподрезково", "name_en": "Novopodrezkovo", "colour": "#F26522", "line_name": "D3", "year": 2021 }, "geometry": { "type": "Point", "coordinates": [ 37.352370747715902, 55.936461458599695 ] } },
{ "type": "Feature", "properties": { "osm_id": 2012486869.0, "name_ru": "Молжаниново", "name_en": "Molzhaninovo", "colour": "#F26522", "line_name": "D3", "year": 2021 }, "geometry": { "type": "Point", "coordinates": [ 37.381074143232112, 55.924279035767874 ] } },
{ "type": "Feature", "properties": { "osm_id": 26999985.0, "name_ru": "Сходня", "name_en": "Skhodnya", "colour": "#F26522", "line_name": "D3", "year": 2021 }, "geometry": { "type": "Point", "coordinates": [ 37.298628961605459, 55.949677047417353 ] } },
{ "type": "Feature", "properties": { "osm_id": 316172721.0, "name_ru": "Алабушево", "name_en": "Alabushevo", "colour": "#F26522", "line_name": "D3", "year": 2021 }, "geometry": { "type": "Point", "coordinates": [ 37.140679155579079, 56.008027503340557 ] } },
{ "type": "Feature", "properties": { "osm_id": 1994411907.0, "name_ru": "Зеленоград", "name_en": "Zelenograd", "colour": "#F26522", "line_name": "D3", "year": 2021 }, "geometry": { "type": "Point", "coordinates": [ 37.173862774124252, 55.979966287571543 ] } },
{ "type": "Feature", "properties": { "osm_id": 2000431026.0, "name_ru": "Малино", "name_en": "Malino", "colour": "#F26522", "line_name": "D3", "year": 2021 }, "geometry": { "type": "Point", "coordinates": [ 37.21188371007193, 55.969038954118417 ] } },
{ "type": "Feature", "properties": { "osm_id": 2012486870.0, "name_ru": "Подрезково", "name_en": "Podrezkovo", "colour": "#F26522", "line_name": "D3", "year": 2021 }, "geometry": { "type": "Point", "coordinates": [ 37.334321486271307, 55.94180985457421 ] } },
{ "type": "Feature", "properties": { "osm_id": 1991411798.0, "name_ru": "Апрелевка", "name_en": "Aprelevka", "colour": "#72BF44", "line_name": "D4", "year": 2021 }, "geometry": { "type": "Point", "coordinates": [ 37.0668123, 55.550134299607713 ] } },
{ "type": "Feature", "properties": { "osm_id": 1991411801.0, "name_ru": "Победа", "name_en": "Pobeda", "colour": "#72BF44", "line_name": "D4", "year": 2021 }, "geometry": { "type": "Point", "coordinates": [ 37.092847772222456, 55.566180214626755 ] } },
{ "type": "Feature", "properties": { "osm_id": 1991442439.0, "name_ru": "Крёкшино", "name_en": "Kryokshino", "colour": "#72BF44", "line_name": "D4", "year": 2021 }, "geometry": { "type": "Point", "coordinates": [ 37.10977680882398, 55.577761381154417 ] } },
{ "type": "Feature", "properties": { "osm_id": 420464927.0, "name_ru": "Толстопальцево", "name_en": "Tolstopaltsevo", "colour": "#72BF44", "line_name": "D4", "year": 2021 }, "geometry": { "type": "Point", "coordinates": [ 37.1868524, 55.607820699629535 ] } },
{ "type": "Feature", "properties": { "osm_id": 277538389.0, "name_ru": "Лесной Городок", "name_en": "Lesnoy Gorodok", "colour": "#72BF44", "line_name": "D4", "year": 2021 }, "geometry": { "type": "Point", "coordinates": [ 37.217875175339195, 55.630327323255251 ] } },
{ "type": "Feature", "properties": { "osm_id": 277544808.0, "name_ru": "Внуково", "name_en": "Vnukovo", "colour": "#72BF44", "line_name": "D4", "year": 2021 }, "geometry": { "type": "Point", "coordinates": [ 37.272366556583222, 55.648961253482831 ] } },
{ "type": "Feature", "properties": { "osm_id": 253439059.0, "name_ru": "Переделкино", "name_en": "Peredelkino", "colour": "#72BF44", "line_name": "D4", "year": 2021 }, "geometry": { "type": "Point", "coordinates": [ 37.355576627356015, 55.656282184928735 ] } },
{ "type": "Feature", "properties": { "osm_id": 87702782.0, "name_ru": "Матвеевское", "name_en": "Matveevskaya", "colour": "#72BF44", "line_name": "D4", "year": 2021 }, "geometry": { "type": "Point", "coordinates": [ 37.480927661001402, 55.704282835538045 ] } },
{ "type": "Feature", "properties": { "osm_id": 6564392308.0, "name_ru": "Санино", "name_en": "Sanino", "colour": "#72BF44", "line_name": "D4", "year": 2021 }, "geometry": { "type": "Point", "coordinates": [ 37.138240584602599, 55.583708392117558 ] } },
{ "type": "Feature", "properties": { "osm_id": 1994650454.0, "name_ru": "Беговая", "name_en": "Begovaya", "colour": "#72BF44", "line_name": "D4", "year": 2021 }, "geometry": { "type": "Point", "coordinates": [ 37.54967250984506, 55.773114505898945 ] } },
{ "type": "Feature", "properties": { "osm_id": 2687590616.0, "name_ru": "Белорусская", "name_en": "Belorusskaya", "colour": "#72BF44", "line_name": "D4", "year": 2021 }, "geometry": { "type": "Point", "coordinates": [ 37.580329293757067, 55.776781113872879 ] } },
{ "type": "Feature", "properties": { "osm_id": 6452308572.0, "name_ru": "Солнечная", "name_en": "Solnechnaya", "colour": "#72BF44", "line_name": "D4", "year": 2021 }, "geometry": { "type": "Point", "coordinates": [ 37.385521860749002, 55.657365345841121 ] } },
{ "type": "Feature", "properties": { "osm_id": 6453276366.0, "name_ru": "Очаково", "name_en": "Ochakovo", "colour": "#72BF44", "line_name": "D4", "year": 2021 }, "geometry": { "type": "Point", "coordinates": [ 37.450954575395265, 55.683351067505669 ] } },
{ "type": "Feature", "properties": { "osm_id": 6595236431.0, "name_ru": "Мичуринец", "name_en": "Michurinets", "colour": "#72BF44", "line_name": "D4", "year": 2021 }, "geometry": { "type": "Point", "coordinates": [ 37.310081343513822, 55.646040087638745 ] } },
{ "type": "Feature", "properties": { "osm_id": 87702813.0, "name_ru": "Поклонная", "name_en": "Poklonnaya", "colour": "#72BF44", "line_name": "D4", "year": 2021 }, "geometry": { "type": "Point", "coordinates": [ 37.511611512246844, 55.728399817113562 ] } },
{ "type": "Feature", "properties": { "osm_id": 316850875.0, "name_ru": "Мещёрская", "name_en": "Meschyorskaya", "colour": "#72BF44", "line_name": "D4", "year": 2021 }, "geometry": { "type": "Point", "coordinates": [ 37.425635466121648, 55.667031616713153 ] } },
{ "type": "Feature", "properties": { "osm_id": 1991442436.0, "name_ru": "Кокошкино", "name_en": "Kokoshkino", "colour": "#72BF44", "line_name": "D4", "year": 2021 }, "geometry": { "type": "Point", "coordinates": [ 37.167573765948781, 55.597715084742788 ] } },
{ "type": "Feature", "properties": { "osm_id": 2261673394.0, "name_ru": "Реутов", "name_en": "Reutov", "colour": "#72BF44", "line_name": "D4", "year": 2021 }, "geometry": { "type": "Point", "coordinates": [ 37.857953001973264, 55.752129782482612 ] } },
{ "type": "Feature", "properties": { "osm_id": 5988989651.0, "name_ru": "Нижегородская", "name_en": "Nizhegorodskaya", "colour": "#72BF44", "line_name": "D4", "year": 2021 }, "geometry": { "type": "Point", "coordinates": [ 37.729592163248348, 55.733369168828006 ] } },
{ "type": "Feature", "properties": { "osm_id": 1994609812.0, "name_ru": "Серп и Молот", "name_en": "Serp i Molot", "colour": "#72BF44", "line_name": "D4", "year": 2021 }, "geometry": { "type": "Point", "coordinates": [ 37.682394889355933, 55.748193030836177 ] } },
{ "type": "Feature", "properties": { "osm_id": 61088523.0, "name_ru": "Курская", "name_en": "Kurskaya", "colour": "#72BF44", "line_name": "D4", "year": 2021 }, "geometry": { "type": "Point", "coordinates": [ 37.662212295289898, 55.75765752633658 ] } },
{ "type": "Feature", "properties": { "osm_id": 1994682649.0, "name_ru": "Кусково", "name_en": "Kuskovo", "colour": "#72BF44", "line_name": "D4", "year": 2021 }, "geometry": { "type": "Point", "coordinates": [ 37.794799207561134, 55.739683008516444 ] } },
{ "type": "Feature", "properties": { "osm_id": 907972179.0, "name_ru": "Новогиреево", "name_en": "Novogireevo", "colour": "#72BF44", "line_name": "D4", "year": 2021 }, "geometry": { "type": "Point", "coordinates": [ 37.819280635231522, 55.744438607325463 ] } },
{ "type": "Feature", "properties": { "osm_id": 2261680950.0, "name_ru": "Никольское", "name_en": "Nikolskoe", "colour": "#72BF44", "line_name": "D4", "year": 2021 }, "geometry": { "type": "Point", "coordinates": [ 37.897678105096411, 55.759833458195054 ] } },
{ "type": "Feature", "properties": { "osm_id": 250536465.0, "name_ru": "Салтыковская", "name_en": "Saltykovskaya", "colour": "#72BF44", "line_name": "D4", "year": 2021 }, "geometry": { "type": "Point", "coordinates": [ 37.922365283764258, 55.757830790003041 ] } },
{ "type": "Feature", "properties": { "osm_id": 316697751.0, "name_ru": "Рижская", "name_en": "Rizhskaya", "colour": "#72BF44", "line_name": "D4", "year": 2021 }, "geometry": { "type": "Point", "coordinates": [ 37.638634633441669, 55.793893118094282 ] } },
{ "type": "Feature", "properties": { "osm_id": 248916189.0, "name_ru": "Железнодорожная", "name_en": "Zheleznodorozhnaya", "colour": "#72BF44", "line_name": "D4", "year": 2021 }, "geometry": { "type": "Point", "coordinates": [ 38.0082248, 55.752482499685975 ] } },
{ "type": "Feature", "properties": { "osm_id": 6605207003.0, "name_ru": "Чухлинка", "name_en": "Chukhlinka", "colour": "#72BF44", "line_name": "D4", "year": 2021 }, "geometry": { "type": "Point", "coordinates": [ 37.763098903573542, 55.733429298603077 ] } },
{ "type": "Feature", "properties": { "osm_id": 6986103158.0, "name_ru": "Каланчёвская", "name_en": "Kalanchyovskaya", "colour": "#72BF44", "line_name": "D4", "year": 2021 }, "geometry": { "type": "Point", "coordinates": [ 37.651593404521471, 55.776066059322915 ] } },
{ "type": "Feature", "properties": { "osm_id": 1987901070.0, "name_ru": "Кучино", "name_en": "Kuchino", "colour": "#72BF44", "line_name": "D4", "year": 2021 }, "geometry": { "type": "Point", "coordinates": [ 37.955147946214801, 55.752162752508326 ] } },
{ "type": "Feature", "properties": { "osm_id": 1994609746.0, "name_ru": "Чухлинка", "name_en": "Chukhlinka", "colour": "#F26522", "line_name": "D3", "year": 2021 }, "geometry": { "type": "Point", "coordinates": [ 37.7645166, 55.73587129967936 ] } },
{ "type": "Feature", "properties": { "osm_id": 1994637881.0, "name_ru": "Новые Химки (проект.)", "name_en": "Novye Khimki", "colour": "#F26522", "line_name": "D3", "year": 2021 }, "geometry": { "type": "Point", "coordinates": [ 37.406233062845416, 55.913623766482665 ] } },
{ "type": "Feature", "properties": { "osm_id": 1994637881.0, "name_ru": "Ховрино (проект.)", "name_en": "Khovrino", "colour": "#F26522", "line_name": "D3", "year": 2021 }, "geometry": { "type": "Point", "coordinates": [ 37.486128324913068, 55.879682376763554 ] } },
{ "type": "Feature", "properties": { "osm_id": 1994637881.0, "name_ru": "Калибровская (проект.)", "name_en": "Kalibrovskaya", "colour": "#F26522", "line_name": "D3", "year": 2021 }, "geometry": { "type": "Point", "coordinates": [ 37.620356956991834, 55.807437073794226 ] } },
{ "type": "Feature", "properties": { "osm_id": 1994671380.0, "name_ru": "Митьково (проект.)", "name_en": "Mitkovo", "colour": "#F26522", "line_name": "D3", "year": 2021 }, "geometry": { "type": "Point", "coordinates": [ 37.670591694071611, 55.785636054255335 ] } },
{ "type": "Feature", "properties": { "osm_id": 6453276366.0, "name_ru": "Аминьевская (проект.)", "name_en": "Aminyevskaya", "colour": "#72BF44", "line_name": "D4", "year": 2021 }, "geometry": { "type": "Point", "coordinates": [ 37.467078725889536, 55.695430436613137 ] } },
{ "type": "Feature", "properties": { "osm_id": 6453276366.0, "name_ru": "Минская (проект.)", "name_en": "Minskaya", "colour": "#72BF44", "line_name": "D4", "year": 2021 }, "geometry": { "type": "Point", "coordinates": [ 37.4994887, 55.723241299674385 ] } },
{ "type": "Feature", "properties": { "osm_id": null, "name_ru": "Кутузовская", "name_en": "Kutuzovskaya", "colour": "#72BF44", "line_name": "D4", "year": 2021 }, "geometry": { "type": "Point", "coordinates": [ 37.533832311758644, 55.73988200157445 ] } },
{ "type": "Feature", "properties": { "osm_id": 253213262.0, "name_ru": "Тестовская (проект.)", "name_en": "Testovskaya", "colour": "#72BF44", "line_name": "D4", "year": 2021 }, "geometry": { "type": "Point", "coordinates": [ 37.529779655487665, 55.751626718036555 ] } },
{ "type": "Feature", "properties": { "osm_id": 253213262.0, "name_ru": "Ермаковская (проект.)", "name_en": "Ermakovskaya", "colour": "#72BF44", "line_name": "D4", "year": 2021 }, "geometry": { "type": "Point", "coordinates": [ 37.535142046003443, 55.765379231056663 ] } },
{ "type": "Feature", "properties": { "osm_id": 2687590616.0, "name_ru": "Савёловская", "name_en": "Savyolovskaya", "colour": "#72BF44", "line_name": "D4", "year": 2021 }, "geometry": { "type": "Point", "coordinates": [ 37.5901093, 55.794008299702618 ] } },
{ "type": "Feature", "properties": { "osm_id": 2687590616.0, "name_ru": "Станколит", "name_en": "Stankolit", "colour": "#72BF44", "line_name": "D4", "year": 2021 }, "geometry": { "type": "Point", "coordinates": [ 37.598832934773185, 55.799362553593738 ] } },
{ "type": "Feature", "properties": { "osm_id": 2687590616.0, "name_ru": "Марьина Роща (проект.)", "name_en": "Maryina Roscha", "colour": "#72BF44", "line_name": "D4", "year": 2021 }, "geometry": { "type": "Point", "coordinates": [ 37.6152045, 55.80074489970535 ] } },
{ "type": "Feature", "properties": { "osm_id": 1985948193.0, "name_ru": "Ростокино", "name_en": "Rostokino", "colour": "#40BA8D", "line_name": "D51", "year": 2022 }, "geometry": { "type": "Point", "coordinates": [ 37.669831248675827, 55.840794089583085 ] } },
{ "type": "Feature", "properties": { "osm_id": 270332134.0, "name_ru": "Пушкино", "name_en": "Pushkino", "colour": "#40BA8D", "line_name": "D51", "year": 2022 }, "geometry": { "type": "Point", "coordinates": [ 37.8394137, 56.012083899793197 ] } },
{ "type": "Feature", "properties": { "osm_id": 270332136.0, "name_ru": "Клязьма", "name_en": "Klyazma", "colour": "#40BA8D", "line_name": "D51", "year": 2022 }, "geometry": { "type": "Point", "coordinates": [ 37.81908402438895, 55.978530639687207 ] } },
{ "type": "Feature", "properties": { "osm_id": 504080258.0, "name_ru": "Мамонтовская", "name_en": "Mamontovskaya", "colour": "#40BA8D", "line_name": "D51", "year": 2022 }, "geometry": { "type": "Point", "coordinates": [ 37.829120851466087, 55.994729589972273 ] } },
{ "type": "Feature", "properties": { "osm_id": 1985948187.0, "name_ru": "Лосиноостровская", "name_en": "Losinoostrovskaya", "colour": "#40BA8D", "line_name": "D51", "year": 2022 }, "geometry": { "type": "Point", "coordinates": [ 37.68300322188017, 55.862489069541702 ] } },
{ "type": "Feature", "properties": { "osm_id": 1987604386.0, "name_ru": "Строитель", "name_en": "Stroitel", "colour": "#40BA8D", "line_name": "D51", "year": 2022 }, "geometry": { "type": "Point", "coordinates": [ 37.782224133502744, 55.932201755836765 ] } },
{ "type": "Feature", "properties": { "osm_id": 1987604390.0, "name_ru": "Тарасовская", "name_en": "Tarasovskaya", "colour": "#40BA8D", "line_name": "D51", "year": 2022 }, "geometry": { "type": "Point", "coordinates": [ 37.808845433025503, 55.962143132802552 ] } },
{ "type": "Feature", "properties": { "osm_id": 1987604398.0, "name_ru": "Челюскинская", "name_en": "Chelyuskinskaya", "colour": "#40BA8D", "line_name": "D51", "year": 2022 }, "geometry": { "type": "Point", "coordinates": [ 37.799635721508352, 55.947538829583145 ] } },
{ "type": "Feature", "properties": { "osm_id": 316082114.0, "name_ru": "Яуза", "name_en": "Yauza", "colour": "#40BA8D", "line_name": "D51", "year": 2022 }, "geometry": { "type": "Point", "coordinates": [ 37.671138354297099, 55.82926934605964 ] } },
{ "type": "Feature", "properties": { "osm_id": 316109463.0, "name_ru": "Мытищи", "name_en": "Mytishchi", "colour": "#40BA8D", "line_name": "D51", "year": 2022 }, "geometry": { "type": "Point", "coordinates": [ 37.761537355443565, 55.914738773132626 ] } },
{ "type": "Feature", "properties": { "osm_id": 1985948190.0, "name_ru": "Лось", "name_en": "Los", "colour": "#40BA8D", "line_name": "D51", "year": 2022 }, "geometry": { "type": "Point", "coordinates": [ 37.711391365867556, 55.880360045583608 ] } },
{ "type": "Feature", "properties": { "osm_id": 1987281823.0, "name_ru": "Перловская", "name_en": "Perlovskaya", "colour": "#40BA8D", "line_name": "D51", "year": 2022 }, "geometry": { "type": "Point", "coordinates": [ 37.726829005169023, 55.890522983847603 ] } },
{ "type": "Feature", "properties": { "osm_id": 1987281826.0, "name_ru": "Тайнинская", "name_en": "Tayninskaya", "colour": "#40BA8D", "line_name": "D51", "year": 2022 }, "geometry": { "type": "Point", "coordinates": [ 37.74281552227604, 55.901095613607012 ] } },
{ "type": "Feature", "properties": { "osm_id": 316075784.0, "name_ru": "Рижская", "name_en": "Rizhskaya", "colour": "#40BA8D", "line_name": "D51", "year": 2022 }, "geometry": { "type": "Point", "coordinates": [ 37.651610500300713, 55.801855656325294 ] } },
{ "type": "Feature", "properties": { "osm_id": 316082112.0, "name_ru": "Маленковская", "name_en": "Malenkovskaya", "colour": "#40BA8D", "line_name": "D51", "year": 2022 }, "geometry": { "type": "Point", "coordinates": [ 37.6628638, 55.814368299710885 ] } },
{ "type": "Feature", "properties": { "osm_id": 316075784.0, "name_ru": "Ярославская", "name_en": "Yaroslavskaya", "colour": "#40BA8D", "line_name": "D51", "year": 2022 }, "geometry": { "type": "Point", "coordinates": [ 37.6573411, 55.777619199696041 ] } },
{ "type": "Feature", "properties": { "osm_id": 316978214.0, "name_ru": "Королёв", "name_en": "Korolyov", "colour": "#40BA8D", "line_name": "D52", "year": 2022 }, "geometry": { "type": "Point", "coordinates": [ 37.8610889, 55.926222699756927 ] } },
{ "type": "Feature", "properties": { "osm_id": 316978213.0, "name_ru": "Подлипки-Дачные", "name_en": "Podlipki-Dachnye", "colour": "#40BA8D", "line_name": "D52", "year": 2022 }, "geometry": { "type": "Point", "coordinates": [ 37.816365248166548, 55.925451543444261 ] } },
{ "type": "Feature", "properties": { "osm_id": 3993251044.0, "name_ru": "Тульская", "name_en": "Tulskaya", "colour": "#40BA8D", "line_name": "D5", "year": 2022 }, "geometry": { "type": "Point", "coordinates": [ 37.623242064807002, 55.704188077345087 ] } },
{ "type": "Feature", "properties": { "osm_id": 2005883653.0, "name_ru": "Домодедово", "name_en": "Domodedovo", "colour": "#40BA8D", "line_name": "D5", "year": 2022 }, "geometry": { "type": "Point", "coordinates": [ 37.7727528, 55.440744699567453 ] } },
{ "type": "Feature", "properties": { "osm_id": 2000568569.0, "name_ru": "Ленинская", "name_en": "Leninskaya", "colour": "#40BA8D", "line_name": "D5", "year": 2022 }, "geometry": { "type": "Point", "coordinates": [ 37.730900621144386, 55.489022935271798 ] } },
{ "type": "Feature", "properties": { "osm_id": 2001755309.0, "name_ru": "Калинина", "name_en": "Kalinina", "colour": "#40BA8D", "line_name": "D5", "year": 2022 }, "geometry": { "type": "Point", "coordinates": [ 37.707840610289907, 55.516791970112216 ] } },
{ "type": "Feature", "properties": { "osm_id": 148263975.0, "name_ru": "Бирюлёво-Пассажирская", "name_en": "Biryulyovo-Passazhirskaya", "colour": "#40BA8D", "line_name": "D5", "year": 2022 }, "geometry": { "type": "Point", "coordinates": [ 37.659811996689236, 55.582526674723823 ] } },
{ "type": "Feature", "properties": { "osm_id": 489906221.0, "name_ru": "Булатниково", "name_en": "Bulatnikovo", "colour": "#40BA8D", "line_name": "D5", "year": 2022 }, "geometry": { "type": "Point", "coordinates": [ 37.6683326, 55.566315899613798 ] } },
{ "type": "Feature", "properties": { "osm_id": 2001755299.0, "name_ru": "Расторгуево", "name_en": "Rastorguevo", "colour": "#40BA8D", "line_name": "D5", "year": 2022 }, "geometry": { "type": "Point", "coordinates": [ 37.685945994215182, 55.548351585686227 ] } },
{ "type": "Feature", "properties": { "osm_id": 1380353785.0, "name_ru": "Чертаново", "name_en": "Chertanovo", "colour": "#40BA8D", "line_name": "D5", "year": 2022 }, "geometry": { "type": "Point", "coordinates": [ 37.627435186076447, 55.630970772261087 ] } },
{ "type": "Feature", "properties": { "osm_id": 292789222.0, "name_ru": "Варшавская", "name_en": "Varshavskaya", "colour": "#40BA8D", "line_name": "D5", "year": 2022 }, "geometry": { "type": "Point", "coordinates": [ 37.622287212440746, 55.654477468858076 ] } },
{ "type": "Feature", "properties": { "osm_id": 311605855.0, "name_ru": "Бирюлёво-Товарное", "name_en": "Biryulyovo-Tovarnoe", "colour": "#40BA8D", "line_name": "D5", "year": 2022 }, "geometry": { "type": "Point", "coordinates": [ 37.653891701670794, 55.592935140195209 ] } },
{ "type": "Feature", "properties": { "osm_id": 1705951317.0, "name_ru": "Павелецкая", "name_en": "Paveletskaya", "colour": "#40BA8D", "line_name": "D5", "year": 2022 }, "geometry": { "type": "Point", "coordinates": [ 37.6409236, 55.729410099676798 ] } },
{ "type": "Feature", "properties": { "osm_id": 2023211069.0, "name_ru": "Дербеневская", "name_en": "Derbenevskaya", "colour": "#40BA8D", "line_name": "D5", "year": 2022 }, "geometry": { "type": "Point", "coordinates": [ 37.643155470933308, 55.717386849240782 ] } },
{ "type": "Feature", "properties": { "osm_id": 2023211071.0, "name_ru": "Нагатинская", "name_en": "Nagatinskaya", "colour": "#40BA8D", "line_name": "D5", "year": 2022 }, "geometry": { "type": "Point", "coordinates": [ 37.621012147971776, 55.682033325647311 ] } },
{ "type": "Feature", "properties": { "osm_id": 6163569388.0, "name_ru": "Верхние Котлы", "name_en": "Verkhnie Kotly", "colour": "#40BA8D", "line_name": "D5", "year": 2022 }, "geometry": { "type": "Point", "coordinates": [ 37.617056861812138, 55.68955672080039 ] } },
{ "type": "Feature", "properties": { "osm_id": null, "name_ru": "Котляково (проект.)", "name_en": "Kotlyakovo", "colour": "#40BA8D", "line_name": "D5", "year": 2025 }, "geometry": { "type": "Point", "coordinates": [ 37.642245464679483, 55.609526621004491 ] } }
]
}
