{
    "type": "FeatureCollection",
    "name": "bicycle_stations",
    "crs": { "type": "name", "properties": { "name": "urn:ogc:def:crs:OGC:1.3:CRS84" } },
    "features": [
        {
            "type": "Feature",
            "properties": {
                "Name": "Пункт проката велосипедов № 2",
                "StationCapacity": 14,
                "AdmArea": "Центральный административный округ",
                "District": "район Хамовники",
                "Location": "Гоголевский бульвар, дом 17, строение 1"
            },
            "geometry": { "type": "Point", "coordinates": [37.5996, 55.7469] }
        },
        {
            "type": "Feature",
            "properties": {
                "Name": "Пункт проката велосипедов № 3",
                "StationCapacity": 12,
                "AdmArea": "Центральный административный округ",
                "District": "район Арбат",
                "Location": "Гоголевский бульвар, дом 33"
            },
            "geometry": { "type": "Point", "coordinates": [37.6006, 55.7509] }
        },
        {
            "type": "Feature",
            "properties": {
                "Name": "Пункт проката велосипедов № 5",
                "StationCapacity": 12,
                "AdmArea": "Центральный административный округ",
                "District": "Пресненский район",
                "Location": "Никитский бульвар, дом 11/12, строение 3"
            },
            "geometry": { "type": "Point", "coordinates": [37.6, 55.7554] }
        },
        {
            "type": "Feature",
            "properties": {
                "Name": "Пункт проката велосипедов № 6",
                "StationCapacity": 15,
                "AdmArea": "Центральный административный округ",
                "District": "Пресненский район",
                "Location": "Большая Никитская улица, дом 23/14/9"
            },
            "geometry": { "type": "Point", "coordinates": [37.5985, 55.7573] }
        },
        {
            "type": "Feature",
            "properties": {
                "Name": "Пункт проката велосипедов № 8",
                "StationCapacity": 14,
                "AdmArea": "Центральный административный округ",
                "District": "Пресненский район",
                "Location": "Тверской бульвар, дом 17, строение 1"
            },
            "geometry": { "type": "Point", "coordinates": [37.6022, 55.7616] }
        },
        {
            "type": "Feature",
            "properties": {
                "Name": "Пункт проката велосипедов № 9",
                "StationCapacity": 20,
                "AdmArea": "Центральный административный округ",
                "District": "Тверской район",
                "Location": "Тверской бульвар, дом 28"
            },
            "geometry": { "type": "Point", "coordinates": [37.6051, 55.7646] }
        },
        {
            "type": "Feature",
            "properties": {
                "Name": "Пункт проката велосипедов № 10",
                "StationCapacity": 14,
                "AdmArea": "Центральный административный округ",
                "District": "Тверской район",
                "Location": "Страстной бульвар, дом 8А"
            },
            "geometry": { "type": "Point", "coordinates": [37.6095, 55.7667] }
        },
        {
            "type": "Feature",
            "properties": {
                "Name": "Пункт проката велосипедов № 11",
                "StationCapacity": 8,
                "AdmArea": "Центральный административный округ",
                "District": "Тверской район",
                "Location": "Страстной бульвар, дом 16"
            },
            "geometry": { "type": "Point", "coordinates": [37.6131, 55.7681] }
        },
        {
            "type": "Feature",
            "properties": {
                "Name": "Пункт проката велосипедов № 16",
                "StationCapacity": 10,
                "AdmArea": "Центральный административный округ",
                "District": "Басманный район",
                "Location": "Мясницкая ул., д.10"
            },
            "geometry": { "type": "Point", "coordinates": [37.631468, 55.760244] }
        },
        {
            "type": "Feature",
            "properties": {
                "Name": "Пункт проката велосипедов № 17",
                "StationCapacity": 8,
                "AdmArea": "Центральный административный округ",
                "District": "Басманный район",
                "Location": "Чистопрудный бульвар, дом 8, строение 1"
            },
            "geometry": { "type": "Point", "coordinates": [37.6417, 55.7631] }
        },
        {
            "type": "Feature",
            "properties": {
                "Name": "Пункт проката велосипедов № 18",
                "StationCapacity": 14,
                "AdmArea": "Центральный административный округ",
                "District": "Басманный район",
                "Location": "Чистопрудный бульвар, дом 12, строение 1"
            },
            "geometry": { "type": "Point", "coordinates": [37.6455, 55.7603] }
        },
        {
            "type": "Feature",
            "properties": {
                "Name": "Пункт проката велосипедов № 19",
                "StationCapacity": 8,
                "AdmArea": "Центральный административный округ",
                "District": "Басманный район",
                "Location": "Покровский бульвар, дом 8, строение 1А"
            },
            "geometry": { "type": "Point", "coordinates": [37.6473, 55.7573] }
        },
        {
            "type": "Feature",
            "properties": {
                "Name": "Пункт проката велосипедов № 20",
                "StationCapacity": 8,
                "AdmArea": "Центральный административный округ",
                "District": "Басманный район",
                "Location": "Покровский бульвар, дом 12, строение 1"
            },
            "geometry": { "type": "Point", "coordinates": [37.6484, 55.7554] }
        },
        {
            "type": "Feature",
            "properties": {
                "Name": "Пункт проката велосипедов № 21",
                "StationCapacity": 8,
                "AdmArea": "Центральный административный округ",
                "District": "Басманный район",
                "Location": "Покровский бульвар, дом 18/15"
            },
            "geometry": { "type": "Point", "coordinates": [37.6474, 55.7533] }
        },
        {
            "type": "Feature",
            "properties": {
                "Name": "Пункт проката велосипедов № 29",
                "StationCapacity": 20,
                "AdmArea": "Центральный административный округ",
                "District": "Тверской район",
                "Location": "Тверская улица, дом 8"
            },
            "geometry": { "type": "Point", "coordinates": [37.6096, 55.7621] }
        },
        {
            "type": "Feature",
            "properties": {
                "Name": "Пункт проката велосипедов № 28",
                "StationCapacity": 12,
                "AdmArea": "Центральный административный округ",
                "District": "Мещанский район",
                "Location": "Пушечная ул., д.11"
            },
            "geometry": { "type": "Point", "coordinates": [37.625079, 55.760656] }
        },
        {
            "type": "Feature",
            "properties": {
                "Name": "Пункт проката велосипедов № 30",
                "StationCapacity": 14,
                "AdmArea": "Центральный административный округ",
                "District": "Тверской район",
                "Location": "Камергерский пер., д.4"
            },
            "geometry": { "type": "Point", "coordinates": [37.612399, 55.759292] }
        },
        {
            "type": "Feature",
            "properties": {
                "Name": "Пункт проката велосипедов № 35",
                "StationCapacity": 18,
                "AdmArea": "Центральный административный округ",
                "District": "Мещанский район",
                "Location": "улица Кузнецкий Мост, дом 13/9, строение 1"
            },
            "geometry": { "type": "Point", "coordinates": [37.623, 55.7622] }
        },
        {
            "type": "Feature",
            "properties": {
                "Name": "Пункт проката велосипедов № 15",
                "StationCapacity": 15,
                "AdmArea": "Центральный административный округ",
                "District": "Красносельский район",
                "Location": "Тургеневская площадь, дом 2"
            },
            "geometry": { "type": "Point", "coordinates": [37.6367, 55.7654] }
        },
        {
            "type": "Feature",
            "properties": {
                "Name": "Пункт проката велосипедов № 13",
                "StationCapacity": 14,
                "AdmArea": "Центральный административный округ",
                "District": "Тверской район",
                "Location": "Театральный пр-д, д.5, стр.1"
            },
            "geometry": { "type": "Point", "coordinates": [37.626047, 55.76002] }
        },
        {
            "type": "Feature",
            "properties": {
                "Name": "Пункт проката велосипедов № 49",
                "StationCapacity": 10,
                "AdmArea": "Центральный административный округ",
                "District": "Красносельский район",
                "Location": "улица Мясницкая, дом 39"
            },
            "geometry": { "type": "Point", "coordinates": [37.6415, 55.7671] }
        },
        {
            "type": "Feature",
            "properties": {
                "Name": "Пункт проката велосипедов № 308",
                "StationCapacity": 12,
                "AdmArea": "Юго-Западный административный округ",
                "District": "Академический район",
                "Location": "Улица Вавилова, дом 17"
            },
            "geometry": { "type": "Point", "coordinates": [37.579688, 55.701583] }
        },
        {
            "type": "Feature",
            "properties": {
                "Name": "Пункт проката велосипедов № 200",
                "StationCapacity": 16,
                "AdmArea": "Центральный административный округ",
                "District": "район Хамовники",
                "Location": "Фрунзенская набережная, дом 4"
            },
            "geometry": { "type": "Point", "coordinates": [37.5969, 55.7336] }
        },
        {
            "type": "Feature",
            "properties": {
                "Name": "Пункт проката велосипедов № 201",
                "StationCapacity": 32,
                "AdmArea": "Центральный административный округ",
                "District": "район Хамовники",
                "Location": "Фрунзенская набережная, дом 22/2"
            },
            "geometry": { "type": "Point", "coordinates": [37.5899, 55.7257] }
        },
        {
            "type": "Feature",
            "properties": {
                "Name": "Пункт проката велосипедов № 202",
                "StationCapacity": 12,
                "AdmArea": "Центральный административный округ",
                "District": "район Хамовники",
                "Location": "Комсомольский проспект, дом 21, строение 1"
            },
            "geometry": { "type": "Point", "coordinates": [37.5842, 55.7274] }
        },
        {
            "type": "Feature",
            "properties": {
                "Name": "Пункт проката велосипедов № 203",
                "StationCapacity": 9,
                "AdmArea": "Центральный административный округ",
                "District": "район Хамовники",
                "Location": "Комсомольский проспект, дом 31, строение 2"
            },
            "geometry": { "type": "Point", "coordinates": [37.5791, 55.7242] }
        },
        {
            "type": "Feature",
            "properties": {
                "Name": "Пункт проката велосипедов № 204",
                "StationCapacity": 12,
                "AdmArea": "Центральный административный округ",
                "District": "район Хамовники",
                "Location": "Фрунзенская набережная, дом 36/2"
            },
            "geometry": { "type": "Point", "coordinates": [37.5864, 55.7217] }
        },
        {
            "type": "Feature",
            "properties": {
                "Name": "Пункт проката велосипедов № 205",
                "StationCapacity": 12,
                "AdmArea": "Центральный административный округ",
                "District": "район Хамовники",
                "Location": "Комсомольский проспект, дом 37"
            },
            "geometry": { "type": "Point", "coordinates": [37.5759, 55.722] }
        },
        {
            "type": "Feature",
            "properties": {
                "Name": "Пункт проката велосипедов № 206",
                "StationCapacity": 14,
                "AdmArea": "Центральный административный округ",
                "District": "район Хамовники",
                "Location": "Фрунзенская набережная, дом 44, строение 1"
            },
            "geometry": { "type": "Point", "coordinates": [37.5835, 55.7192] }
        },
        {
            "type": "Feature",
            "properties": {
                "Name": "Пункт проката велосипедов № 207",
                "StationCapacity": 32,
                "AdmArea": "Центральный административный округ",
                "District": "район Хамовники",
                "Location": "Фрунзенская набережная, дом 54"
            },
            "geometry": { "type": "Point", "coordinates": [37.578, 55.7155] }
        },
        {
            "type": "Feature",
            "properties": {
                "Name": "Пункт проката велосипедов № 210",
                "StationCapacity": 45,
                "AdmArea": "Центральный административный округ",
                "District": "район Хамовники",
                "Location": "Лужнецкая набережная, дом 2/4, строение 68"
            },
            "geometry": { "type": "Point", "coordinates": [37.5695, 55.7126] }
        },
        {
            "type": "Feature",
            "properties": {
                "Name": "Пункт проката велосипедов № 211",
                "StationCapacity": 48,
                "AdmArea": "Центральный административный округ",
                "District": "район Хамовники",
                "Location": "Лужнецкая набережная, дом 24, строение 20"
            },
            "geometry": { "type": "Point", "coordinates": [37.56, 55.7116] }
        },
        {
            "type": "Feature",
            "properties": {
                "Name": "Пункт проката велосипедов № 212",
                "StationCapacity": 34,
                "AdmArea": "Центральный административный округ",
                "District": "район Хамовники",
                "Location": "Хамовнический Вал ул., д.40, стр.1"
            },
            "geometry": { "type": "Point", "coordinates": [37.550408, 55.727605] }
        },
        {
            "type": "Feature",
            "properties": {
                "Name": "Пункт проката велосипедов № 39",
                "StationCapacity": 22,
                "AdmArea": "Центральный административный округ",
                "District": "Басманный район",
                "Location": "улица Покровка, дом 7/9-11"
            },
            "geometry": { "type": "Point", "coordinates": [37.6425, 55.759] }
        },
        {
            "type": "Feature",
            "properties": {
                "Name": "Пункт проката велосипедов № 209",
                "StationCapacity": 48,
                "AdmArea": "Центральный административный округ",
                "District": "район Хамовники",
                "Location": "улица Хамовнический Вал, дом 36А"
            },
            "geometry": { "type": "Point", "coordinates": [37.5617, 55.7218] }
        },
        {
            "type": "Feature",
            "properties": {
                "Name": "Пункт проката велосипедов № 152",
                "StationCapacity": 12,
                "AdmArea": "Центральный административный округ",
                "District": "район Хамовники",
                "Location": "Турчанинов пер., д.3, стр.1"
            },
            "geometry": { "type": "Point", "coordinates": [37.595827, 55.736415] }
        },
        {
            "type": "Feature",
            "properties": {
                "Name": "Пункт проката велосипедов № 301",
                "StationCapacity": 12,
                "AdmArea": "Западный административный округ",
                "District": "район Раменки",
                "Location": "Университетский проспект, дом 13"
            },
            "geometry": { "type": "Point", "coordinates": [37.5456, 55.7008] }
        },
        {
            "type": "Feature",
            "properties": {
                "Name": "Пункт проката велосипедов № 359",
                "StationCapacity": 18,
                "AdmArea": "Западный административный округ",
                "District": "район Раменки",
                "Location": "Ломоносовский проспект, дом 66"
            },
            "geometry": { "type": "Point", "coordinates": [37.5341, 55.6946] }
        },
        {
            "type": "Feature",
            "properties": {
                "Name": "Пункт проката велосипедов № 53",
                "StationCapacity": 12,
                "AdmArea": "Западный административный округ",
                "District": "район Раменки",
                "Location": "улица Новый Арбат, дом 21"
            },
            "geometry": { "type": "Point", "coordinates": [37.5418, 55.7083] }
        },
        {
            "type": "Feature",
            "properties": {
                "Name": "Пункт проката велосипедов № 75",
                "StationCapacity": 12,
                "AdmArea": "Центральный административный округ",
                "District": "район Замоскворечье",
                "Location": "Климентовский переулок, дом 23, строение 1"
            },
            "geometry": { "type": "Point", "coordinates": [37.6256, 55.7408] }
        },
        {
            "type": "Feature",
            "properties": {
                "Name": "Пункт проката велосипедов № 70",
                "StationCapacity": 12,
                "AdmArea": "Центральный административный округ",
                "District": "район Якиманка",
                "Location": "Лаврушинский переулок, дом 4, строение 1"
            },
            "geometry": { "type": "Point", "coordinates": [37.6202, 55.7429] }
        },
        {
            "type": "Feature",
            "properties": {
                "Name": "Пункт проката велосипедов № 57",
                "StationCapacity": 12,
                "AdmArea": "Центральный административный округ",
                "District": "район Замоскворечье",
                "Location": "Раушская наб., д.14"
            },
            "geometry": { "type": "Point", "coordinates": [37.632493, 55.74809] }
        },
        {
            "type": "Feature",
            "properties": {
                "Name": "Пункт проката велосипедов № 216",
                "StationCapacity": 12,
                "AdmArea": "Центральный административный округ",
                "District": "район Хамовники",
                "Location": "Большая Пироговская улица, дом 5"
            },
            "geometry": { "type": "Point", "coordinates": [37.5813, 55.7364] }
        },
        {
            "type": "Feature",
            "properties": {
                "Name": "Пункт проката велосипедов № 215",
                "StationCapacity": 21,
                "AdmArea": "Центральный административный округ",
                "District": "район Хамовники",
                "Location": "Большая Пироговская улица, дом 15/18, строение 1"
            },
            "geometry": { "type": "Point", "coordinates": [37.5754, 55.7338] }
        },
        {
            "type": "Feature",
            "properties": {
                "Name": "Пункт проката велосипедов № 217",
                "StationCapacity": 24,
                "AdmArea": "Центральный административный округ",
                "District": "район Хамовники",
                "Location": "Усачёва улица, дом 2, строение 1"
            },
            "geometry": { "type": "Point", "coordinates": [37.577, 55.7307] }
        },
        {
            "type": "Feature",
            "properties": {
                "Name": "Пункт проката велосипедов № 218",
                "StationCapacity": 24,
                "AdmArea": "Центральный административный округ",
                "District": "район Хамовники",
                "Location": "Комсомольский проспект, дом 28"
            },
            "geometry": { "type": "Point", "coordinates": [37.5807, 55.7264] }
        },
        {
            "type": "Feature",
            "properties": {
                "Name": "Пункт проката велосипедов № 214",
                "StationCapacity": 12,
                "AdmArea": "Центральный административный округ",
                "District": "район Хамовники",
                "Location": "Большая Пироговская улица, дом 2, строение 4"
            },
            "geometry": { "type": "Point", "coordinates": [37.5692, 55.7311] }
        },
        {
            "type": "Feature",
            "properties": {
                "Name": "Пункт проката велосипедов № 208",
                "StationCapacity": 18,
                "AdmArea": "Центральный административный округ",
                "District": "район Хамовники",
                "Location": "Усачёва улица, дом 29, корпус 3"
            },
            "geometry": { "type": "Point", "coordinates": [37.5652, 55.7238] }
        },
        {
            "type": "Feature",
            "properties": {
                "Name": "Пункт проката велосипедов № 213",
                "StationCapacity": 18,
                "AdmArea": "Центральный административный округ",
                "District": "район Хамовники",
                "Location": "Новодевичий проезд, дом 1"
            },
            "geometry": { "type": "Point", "coordinates": [37.5596, 55.7269] }
        },
        {
            "type": "Feature",
            "properties": {
                "Name": "Пункт проката велосипедов № 219",
                "StationCapacity": 12,
                "AdmArea": "Центральный административный округ",
                "District": "район Хамовники",
                "Location": "улица Хамовнический Вал, дом 24"
            },
            "geometry": { "type": "Point", "coordinates": [37.5704, 55.7193] }
        },
        {
            "type": "Feature",
            "properties": {
                "Name": "Пункт проката велосипедов № 43",
                "StationCapacity": 12,
                "AdmArea": "Центральный административный округ",
                "District": "Пресненский район",
                "Location": "Большой Патриарший переулок, дом 7, строение 1"
            },
            "geometry": { "type": "Point", "coordinates": [37.5931, 55.7635] }
        },
        {
            "type": "Feature",
            "properties": {
                "Name": "Пункт проката велосипедов № 50",
                "StationCapacity": 12,
                "AdmArea": "Центральный административный округ",
                "District": "район Арбат",
                "Location": "улица Новый Арбат, дом 1, строение 2"
            },
            "geometry": { "type": "Point", "coordinates": [37.5998, 55.7526] }
        },
        {
            "type": "Feature",
            "properties": {
                "Name": "Пункт проката велосипедов № 4",
                "StationCapacity": 12,
                "AdmArea": "Центральный административный округ",
                "District": "Пресненский район",
                "Location": "Никитская Малая ул., д.24, стр.2"
            },
            "geometry": { "type": "Point", "coordinates": [37.587544, 55.759184] }
        },
        {
            "type": "Feature",
            "properties": {
                "Name": "Пункт проката велосипедов № 51",
                "StationCapacity": 12,
                "AdmArea": "Центральный административный округ",
                "District": "район Арбат",
                "Location": "Арбат Новый ул., д.22"
            },
            "geometry": { "type": "Point", "coordinates": [37.588773, 55.752805] }
        },
        {
            "type": "Feature",
            "properties": {
                "Name": "Пункт проката велосипедов № 54",
                "StationCapacity": 12,
                "AdmArea": "Центральный административный округ",
                "District": "район Арбат",
                "Location": "переулок Сивцев Вражек, дом 26, строение 1"
            },
            "geometry": { "type": "Point", "coordinates": [37.5919, 55.7475] }
        },
        {
            "type": "Feature",
            "properties": {
                "Name": "Пункт проката велосипедов № 154",
                "StationCapacity": 18,
                "AdmArea": "Центральный административный округ",
                "District": "район Якиманка",
                "Location": "Ленинский пр-кт., д.4"
            },
            "geometry": { "type": "Point", "coordinates": [37.610641, 55.728396] }
        },
        {
            "type": "Feature",
            "properties": {
                "Name": "Пункт проката велосипедов № 59",
                "StationCapacity": 30,
                "AdmArea": "Центральный административный округ",
                "District": "район Якиманка",
                "Location": "Житная ул., д.16"
            },
            "geometry": { "type": "Point", "coordinates": [37.612529, 55.730775] }
        },
        {
            "type": "Feature",
            "properties": {
                "Name": "Пункт проката велосипедов № 220",
                "StationCapacity": 48,
                "AdmArea": "Центральный административный округ",
                "District": "район Хамовники",
                "Location": "Усачёва ул., д.26"
            },
            "geometry": { "type": "Point", "coordinates": [37.568113, 55.72731] }
        },
        {
            "type": "Feature",
            "properties": {
                "Name": "Пункт проката велосипедов № 243",
                "StationCapacity": 36,
                "AdmArea": "Центральный административный округ",
                "District": "район Хамовники",
                "Location": "Саввинская набережная, дом 9"
            },
            "geometry": { "type": "Point", "coordinates": [37.5682, 55.7368] }
        },
        {
            "type": "Feature",
            "properties": {
                "Name": "Пункт проката велосипедов № 403",
                "StationCapacity": 12,
                "AdmArea": "Центральный административный округ",
                "District": "Тверской район",
                "Location": "улица Фадеева, дом 4"
            },
            "geometry": { "type": "Point", "coordinates": [37.5997, 55.7742] }
        },
        {
            "type": "Feature",
            "properties": {
                "Name": "Пункт проката велосипедов № 401",
                "StationCapacity": 12,
                "AdmArea": "Центральный административный округ",
                "District": "Тверской район",
                "Location": "2-я Тверская-Ямская улица, дом 54"
            },
            "geometry": { "type": "Point", "coordinates": [37.59, 55.7751] }
        },
        {
            "type": "Feature",
            "properties": {
                "Name": "Пункт проката велосипедов № 233",
                "StationCapacity": 12,
                "AdmArea": "Центральный административный округ",
                "District": "Пресненский район",
                "Location": "улица Гашека, дом 2, строение 1"
            },
            "geometry": { "type": "Point", "coordinates": [37.5879, 55.7677] }
        },
        {
            "type": "Feature",
            "properties": {
                "Name": "Пункт проката велосипедов № 221",
                "StationCapacity": 36,
                "AdmArea": "Центральный административный округ",
                "District": "Пресненский район",
                "Location": "улица Красная Пресня, дом 31"
            },
            "geometry": { "type": "Point", "coordinates": [37.5635, 55.7624] }
        },
        {
            "type": "Feature",
            "properties": {
                "Name": "Пункт проката велосипедов № 222",
                "StationCapacity": 12,
                "AdmArea": "Центральный административный округ",
                "District": "Пресненский район",
                "Location": "Мантулинская улица, дом 2"
            },
            "geometry": { "type": "Point", "coordinates": [37.559, 55.7568] }
        },
        {
            "type": "Feature",
            "properties": {
                "Name": "Пункт проката велосипедов № 223",
                "StationCapacity": 12,
                "AdmArea": "Центральный административный округ",
                "District": "Пресненский район",
                "Location": "Мантулинская улица, дом 5, строение 21"
            },
            "geometry": { "type": "Point", "coordinates": [37.5513, 55.756] }
        },
        {
            "type": "Feature",
            "properties": {
                "Name": "Пункт проката велосипедов № 239",
                "StationCapacity": 12,
                "AdmArea": "Центральный административный округ",
                "District": "Пресненский район",
                "Location": "Нововаганьковский пер., д.9"
            },
            "geometry": { "type": "Point", "coordinates": [37.565988, 55.759044] }
        },
        {
            "type": "Feature",
            "properties": {
                "Name": "Пункт проката велосипедов № 345",
                "StationCapacity": 12,
                "AdmArea": "Юго-Западный административный округ",
                "District": "Гагаринский район",
                "Location": "улица Косыгина, дом 2, строение 19"
            },
            "geometry": { "type": "Point", "coordinates": [37.5773, 55.7083] }
        },
        {
            "type": "Feature",
            "properties": {
                "Name": "Пункт проката велосипедов № 344",
                "StationCapacity": 12,
                "AdmArea": "Юго-Западный административный округ",
                "District": "Гагаринский район",
                "Location": "улица Косыгина, дом 8, строение 2"
            },
            "geometry": { "type": "Point", "coordinates": [37.5648, 55.7067] }
        },
        {
            "type": "Feature",
            "properties": {
                "Name": "Пункт проката велосипедов № 360",
                "StationCapacity": 30,
                "AdmArea": "Западный административный округ",
                "District": "район Раменки",
                "Location": "площадь Джавахарлала Неру, дом 1"
            },
            "geometry": { "type": "Point", "coordinates": [37.5352, 55.6931] }
        },
        {
            "type": "Feature",
            "properties": {
                "Name": "Пункт проката велосипедов № 350",
                "StationCapacity": 15,
                "AdmArea": "Юго-Западный административный округ",
                "District": "Академический район",
                "Location": "улица Вавилова, дом 55/7"
            },
            "geometry": { "type": "Point", "coordinates": [37.5624, 55.6915] }
        },
        {
            "type": "Feature",
            "properties": {
                "Name": "Пункт проката велосипедов № 362",
                "StationCapacity": 15,
                "AdmArea": "Юго-Западный административный округ",
                "District": "Академический район",
                "Location": "Нахимовский проспект, дом 46"
            },
            "geometry": { "type": "Point", "coordinates": [37.562, 55.6786] }
        },
        {
            "type": "Feature",
            "properties": {
                "Name": "Пункт проката велосипедов № 320",
                "StationCapacity": 15,
                "AdmArea": "Юго-Западный административный округ",
                "District": "Гагаринский район",
                "Location": "Ленинский проспект, дом 73/8"
            },
            "geometry": { "type": "Point", "coordinates": [37.5466, 55.6882] }
        },
        {
            "type": "Feature",
            "properties": {
                "Name": "Пункт проката велосипедов № 319",
                "StationCapacity": 15,
                "AdmArea": "Юго-Западный административный округ",
                "District": "Гагаринский район",
                "Location": "Ленинский проспект, дом 69"
            },
            "geometry": { "type": "Point", "coordinates": [37.5508, 55.6903] }
        },
        {
            "type": "Feature",
            "properties": {
                "Name": "Пункт проката велосипедов № 310",
                "StationCapacity": 12,
                "AdmArea": "Юго-Западный административный округ",
                "District": "Гагаринский район",
                "Location": "Ленинский проспект, дом 34/1"
            },
            "geometry": { "type": "Point", "coordinates": [37.5508, 55.6903] }
        },
        {
            "type": "Feature",
            "properties": {
                "Name": "Пункт проката велосипедов № 311",
                "StationCapacity": 12,
                "AdmArea": "Юго-Западный административный округ",
                "District": "Гагаринский район",
                "Location": "Ленинский проспект, дом 54"
            },
            "geometry": { "type": "Point", "coordinates": [37.5608, 55.6976] }
        },
        {
            "type": "Feature",
            "properties": {
                "Name": "Пункт проката велосипедов № 313",
                "StationCapacity": 12,
                "AdmArea": "Юго-Западный административный округ",
                "District": "Гагаринский район",
                "Location": "Ленинский проспект, дом 66"
            },
            "geometry": { "type": "Point", "coordinates": [37.5501, 55.6913] }
        },
        {
            "type": "Feature",
            "properties": {
                "Name": "Пункт проката велосипедов № 31",
                "StationCapacity": 12,
                "AdmArea": "Центральный административный округ",
                "District": "Тверской район",
                "Location": "улица Большая Дмитровка, дом 2"
            },
            "geometry": { "type": "Point", "coordinates": [37.6165, 55.7591] }
        },
        {
            "type": "Feature",
            "properties": {
                "Name": "Пункт проката велосипедов № 32",
                "StationCapacity": 12,
                "AdmArea": "Центральный административный округ",
                "District": "Тверской район",
                "Location": "улица Большая Дмитровка, дом 5/6, строение 5"
            },
            "geometry": { "type": "Point", "coordinates": [37.6158, 55.7598] }
        },
        {
            "type": "Feature",
            "properties": {
                "Name": "Пункт проката велосипедов № 343",
                "StationCapacity": 24,
                "AdmArea": "Юго-Западный административный округ",
                "District": "Гагаринский район",
                "Location": "улица Косыгина, дом 18, строение 2"
            },
            "geometry": { "type": "Point", "coordinates": [37.5552, 55.7064] }
        },
        {
            "type": "Feature",
            "properties": {
                "Name": "Пункт проката велосипедов № 358",
                "StationCapacity": 12,
                "AdmArea": "Западный административный округ",
                "District": "район Раменки",
                "Location": "Ломоносовский проспект, дом 27"
            },
            "geometry": { "type": "Point", "coordinates": [37.5284, 55.6984] }
        },
        {
            "type": "Feature",
            "properties": {
                "Name": "Пункт проката велосипедов № 356",
                "StationCapacity": 12,
                "AdmArea": "Западный административный округ",
                "District": "район Раменки",
                "Location": "Ломоносовский проспект, дом 27, корпус 4"
            },
            "geometry": { "type": "Point", "coordinates": [37.5226, 55.7017] }
        },
        {
            "type": "Feature",
            "properties": {
                "Name": "Пункт проката велосипедов № 349",
                "StationCapacity": 24,
                "AdmArea": "Западный административный округ",
                "District": "район Раменки",
                "Location": "территория Ленинские Горы, дом 1"
            },
            "geometry": { "type": "Point", "coordinates": [37.5355, 55.7062] }
        },
        {
            "type": "Feature",
            "properties": {
                "Name": "Пункт проката велосипедов № 357",
                "StationCapacity": 12,
                "AdmArea": "Западный административный округ",
                "District": "район Раменки",
                "Location": "Ломоносовский проспект, дом 27"
            },
            "geometry": { "type": "Point", "coordinates": [37.5237, 55.6993] }
        },
        {
            "type": "Feature",
            "properties": {
                "Name": "Пункт проката велосипедов № 72",
                "StationCapacity": 20,
                "AdmArea": "Центральный административный округ",
                "District": "район Замоскворечье",
                "Location": "Космодамианская наб., д.46/50"
            },
            "geometry": { "type": "Point", "coordinates": [37.645868, 55.73664] }
        },
        {
            "type": "Feature",
            "properties": {
                "Name": "Пункт проката велосипедов № 402",
                "StationCapacity": 12,
                "AdmArea": "Центральный административный округ",
                "District": "Тверской район",
                "Location": "Лесная улица, дом 5"
            },
            "geometry": { "type": "Point", "coordinates": [37.5867, 55.7775] }
        },
        {
            "type": "Feature",
            "properties": {
                "Name": "Пункт проката велосипедов № 234",
                "StationCapacity": 12,
                "AdmArea": "Центральный административный округ",
                "District": "Пресненский район",
                "Location": "Большая Грузинская улица, дом 39"
            },
            "geometry": { "type": "Point", "coordinates": [37.5822, 55.7702] }
        },
        {
            "type": "Feature",
            "properties": {
                "Name": "Пункт проката велосипедов № 241",
                "StationCapacity": 30,
                "AdmArea": "Центральный административный округ",
                "District": "район Хамовники",
                "Location": "7-й Ростовский переулок, дом 11"
            },
            "geometry": { "type": "Point", "coordinates": [37.5727, 55.7403] }
        },
        {
            "type": "Feature",
            "properties": {
                "Name": "Пункт проката велосипедов № 244",
                "StationCapacity": 12,
                "AdmArea": "Центральный административный округ",
                "District": "район Хамовники",
                "Location": "улица Плющиха, дом 39"
            },
            "geometry": { "type": "Point", "coordinates": [37.5767, 55.7402] }
        },
        {
            "type": "Feature",
            "properties": {
                "Name": "Пункт проката велосипедов № 315",
                "StationCapacity": 12,
                "AdmArea": "Центральный административный округ",
                "District": "район Якиманка",
                "Location": "Ленинский проспект, дом 9"
            },
            "geometry": { "type": "Point", "coordinates": [37.6054, 55.724] }
        },
        {
            "type": "Feature",
            "properties": {
                "Name": "Пункт проката велосипедов № 317",
                "StationCapacity": 12,
                "AdmArea": "Южный административный округ",
                "District": "Донской район",
                "Location": "Ленинский проспект, дом 33"
            },
            "geometry": { "type": "Point", "coordinates": [37.5877, 55.712] }
        },
        {
            "type": "Feature",
            "properties": {
                "Name": "Пункт проката велосипедов № 58",
                "StationCapacity": 12,
                "AdmArea": "Центральный административный округ",
                "District": "Таганский район",
                "Location": "Серебряническая набережная, дом 29"
            },
            "geometry": { "type": "Point", "coordinates": [37.6549, 55.7506] }
        },
        {
            "type": "Feature",
            "properties": {
                "Name": "Пункт проката велосипедов № 377",
                "StationCapacity": 12,
                "AdmArea": "Южный административный округ",
                "District": "район Чертаново Северное",
                "Location": "Чертановская улица, дом 7, строение 2"
            },
            "geometry": { "type": "Point", "coordinates": [37.6047, 55.6398] }
        },
        {
            "type": "Feature",
            "properties": {
                "Name": "Пункт проката велосипедов № 378",
                "StationCapacity": 12,
                "AdmArea": "Южный административный округ",
                "District": "район Чертаново Северное",
                "Location": "Северное Чертаново мкрн., д.4, к.401"
            },
            "geometry": { "type": "Point", "coordinates": [37.594645, 55.636531] }
        },
        {
            "type": "Feature",
            "properties": {
                "Name": "Пункт проката велосипедов № 383",
                "StationCapacity": 12,
                "AdmArea": "Юго-Западный административный округ",
                "District": "район Коньково",
                "Location": "улица Миклухо-Маклая, дом 44"
            },
            "geometry": { "type": "Point", "coordinates": [37.5425, 55.6376] }
        },
        {
            "type": "Feature",
            "properties": {
                "Name": "Пункт проката велосипедов № 382",
                "StationCapacity": 12,
                "AdmArea": "Юго-Западный административный округ",
                "District": "район Коньково",
                "Location": "Профсоюзная улица, дом 91"
            },
            "geometry": { "type": "Point", "coordinates": [37.5266, 55.6419] }
        },
        {
            "type": "Feature",
            "properties": {
                "Name": "Пункт проката велосипедов № 379",
                "StationCapacity": 12,
                "AdmArea": "Юго-Западный административный округ",
                "District": "район Коньково",
                "Location": "улица Введенского, дом 13А"
            },
            "geometry": { "type": "Point", "coordinates": [37.541, 55.6423] }
        },
        {
            "type": "Feature",
            "properties": {
                "Name": "Пункт проката велосипедов № 355",
                "StationCapacity": 12,
                "AdmArea": "Западный административный округ",
                "District": "район Раменки",
                "Location": "Ломоносовский проспект, дом 29, корпус 3"
            },
            "geometry": { "type": "Point", "coordinates": [37.5142, 55.7052] }
        },
        {
            "type": "Feature",
            "properties": {
                "Name": "Пункт проката велосипедов № 312",
                "StationCapacity": 12,
                "AdmArea": "Юго-Западный административный округ",
                "District": "Гагаринский район",
                "Location": "Ленинский проспект, дом 60/2"
            },
            "geometry": { "type": "Point", "coordinates": [37.5561, 55.6949] }
        },
        {
            "type": "Feature",
            "properties": {
                "Name": "Пункт проката велосипедов № 12",
                "StationCapacity": 12,
                "AdmArea": "Центральный административный округ",
                "District": "Мещанский район",
                "Location": "Цветной б-р"
            },
            "geometry": { "type": "Point", "coordinates": [37.621565, 55.767876] }
        },
        {
            "type": "Feature",
            "properties": {
                "Name": "Пункт проката велосипедов № 352",
                "StationCapacity": 36,
                "AdmArea": "Западный административный округ",
                "District": "район Раменки",
                "Location": "улица Академика Хохлова, дом 1Н, корпус Г"
            },
            "geometry": { "type": "Point", "coordinates": [37.5284, 55.7031] }
        },
        {
            "type": "Feature",
            "properties": {
                "Name": "Пункт проката велосипедов № 38",
                "StationCapacity": 12,
                "AdmArea": "Центральный административный округ",
                "District": "Басманный район",
                "Location": "улица Маросейка, дом 11"
            },
            "geometry": { "type": "Point", "coordinates": [37.6361, 55.7577] }
        },
        {
            "type": "Feature",
            "properties": {
                "Name": "Пункт проката велосипедов № 77",
                "StationCapacity": 10,
                "AdmArea": "Центральный административный округ",
                "District": "район Замоскворечье",
                "Location": "Пятницкая улица, дом 41"
            },
            "geometry": { "type": "Point", "coordinates": [37.6282, 55.7378] }
        },
        {
            "type": "Feature",
            "properties": {
                "Name": "Пункт проката велосипедов № 441",
                "StationCapacity": 12,
                "AdmArea": "Центральный административный округ",
                "District": "Мещанский район",
                "Location": "Проспект Мира, дом 41, строение 2"
            },
            "geometry": { "type": "Point", "coordinates": [37.63172, 55.781495] }
        },
        {
            "type": "Feature",
            "properties": {
                "Name": "Пункт проката велосипедов № 237",
                "StationCapacity": 12,
                "AdmArea": "Центральный административный округ",
                "District": "Пресненский район",
                "Location": "улица Пресненский вал, дом 24"
            },
            "geometry": { "type": "Point", "coordinates": [37.565552, 55.769445] }
        },
        {
            "type": "Feature",
            "properties": {
                "Name": "Пункт проката велосипедов № 363",
                "StationCapacity": 12,
                "AdmArea": "Юго-Западный административный округ",
                "District": "район Котловка",
                "Location": "Нахимовский проспект, дом 24"
            },
            "geometry": { "type": "Point", "coordinates": [37.582721, 55.671656] }
        },
        {
            "type": "Feature",
            "properties": {
                "Name": "Пункт проката велосипедов № 365",
                "StationCapacity": 12,
                "AdmArea": "Юго-Западный административный округ",
                "District": "Ломоносовский район",
                "Location": "улица Гарибальди, дом 1А"
            },
            "geometry": { "type": "Point", "coordinates": [37.532632, 55.678715] }
        },
        {
            "type": "Feature",
            "properties": {
                "Name": "Пункт проката велосипедов № 300",
                "StationCapacity": 12,
                "AdmArea": "Западный административный округ",
                "District": "район Раменки",
                "Location": "Мичуринский проспект, дом 12, корпус 1"
            },
            "geometry": { "type": "Point", "coordinates": [37.507555, 55.703026] }
        },
        {
            "type": "Feature",
            "properties": {
                "Name": "Пункт проката велосипедов № 340",
                "StationCapacity": 24,
                "AdmArea": "Южный административный округ",
                "District": "Донской район",
                "Location": "улица Шаболовка, дом 32"
            },
            "geometry": { "type": "Point", "coordinates": [37.608648, 55.718027] }
        },
        {
            "type": "Feature",
            "properties": {
                "Name": "Пункт проката велосипедов № 316",
                "StationCapacity": 18,
                "AdmArea": "Южный административный округ",
                "District": "Донской район",
                "Location": "Ленинский проспект, дом 15A"
            },
            "geometry": { "type": "Point", "coordinates": [37.600371, 55.72112] }
        },
        {
            "type": "Feature",
            "properties": {
                "Name": "Пункт проката велосипедов № 364",
                "StationCapacity": 12,
                "AdmArea": "Юго-Западный административный округ",
                "District": "Ломоносовский район",
                "Location": "улица Марии Ульяновой, дом 16"
            },
            "geometry": { "type": "Point", "coordinates": [37.519887, 55.683724] }
        },
        {
            "type": "Feature",
            "properties": {
                "Name": "Пункт проката велосипедов № 380",
                "StationCapacity": 12,
                "AdmArea": "Юго-Западный административный округ",
                "District": "Обручевский район",
                "Location": "улица Миклухо-Маклая, дом 6"
            },
            "geometry": { "type": "Point", "coordinates": [37.500151, 55.653506] }
        },
        {
            "type": "Feature",
            "properties": {
                "Name": "Пункт проката велосипедов № 370",
                "StationCapacity": 12,
                "AdmArea": "Юго-Западный административный округ",
                "District": "Обручевский район",
                "Location": "улица Воронцовские пруды, дом 3"
            },
            "geometry": { "type": "Point", "coordinates": [37.53734, 55.66462] }
        },
        {
            "type": "Feature",
            "properties": {
                "Name": "Пункт проката велосипедов № 331",
                "StationCapacity": 12,
                "AdmArea": "Юго-Западный административный округ",
                "District": "район Черёмушки",
                "Location": "улица Профсоюзная, дом 46, корпус 1"
            },
            "geometry": { "type": "Point", "coordinates": [37.557307, 55.673362] }
        },
        {
            "type": "Feature",
            "properties": {
                "Name": "Пункт проката велосипедов № 330",
                "StationCapacity": 12,
                "AdmArea": "Юго-Западный административный округ",
                "District": "Академический район",
                "Location": "улица Профсоюзная, дом 7/12"
            },
            "geometry": { "type": "Point", "coordinates": [37.570182, 55.684347] }
        },
        {
            "type": "Feature",
            "properties": {
                "Name": "Пункт проката велосипедов № 122",
                "StationCapacity": 24,
                "AdmArea": "Центральный административный округ",
                "District": "Мещанский район",
                "Location": "Цветной бульвар, дом 34, строение 1"
            },
            "geometry": { "type": "Point", "coordinates": [37.62121, 55.77314] }
        },
        {
            "type": "Feature",
            "properties": {
                "Name": "Пункт проката велосипедов № 332",
                "StationCapacity": 24,
                "AdmArea": "Юго-Западный административный округ",
                "District": "Обручевский район",
                "Location": "улица Профсоюзная, дом 58/32, корпус 2"
            },
            "geometry": { "type": "Point", "coordinates": [37.552943, 55.66904] }
        },
        {
            "type": "Feature",
            "properties": {
                "Name": "Пункт проката велосипедов № 334",
                "StationCapacity": 12,
                "AdmArea": "Юго-Западный административный округ",
                "District": "район Коньково",
                "Location": "улица Профсоюзная, дом 104"
            },
            "geometry": { "type": "Point", "coordinates": [37.52562, 55.64201] }
        },
        {
            "type": "Feature",
            "properties": {
                "Name": "Пункт проката велосипедов № 442",
                "StationCapacity": 12,
                "AdmArea": "Центральный административный округ",
                "District": "Мещанский район",
                "Location": "Проспект Мира, дом 69, строение 1"
            },
            "geometry": { "type": "Point", "coordinates": [37.63508, 55.78689] }
        },
        {
            "type": "Feature",
            "properties": {
                "Name": "Пункт проката велосипедов № 302",
                "StationCapacity": 12,
                "AdmArea": "Юго-Западный административный округ",
                "District": "Гагаринский район",
                "Location": "Проспект Вернадского, дом 11/19"
            },
            "geometry": { "type": "Point", "coordinates": [37.5306, 55.68977] }
        },
        {
            "type": "Feature",
            "properties": {
                "Name": "Пункт проката велосипедов № 303",
                "StationCapacity": 12,
                "AdmArea": "Западный административный округ",
                "District": "район Проспект Вернадского",
                "Location": "Проспект Вернадского, дом 14"
            },
            "geometry": { "type": "Point", "coordinates": [37.50458, 55.67654] }
        },
        {
            "type": "Feature",
            "properties": {
                "Name": "Пункт проката велосипедов № 314",
                "StationCapacity": 12,
                "AdmArea": "Юго-Западный административный округ",
                "District": "Ломоносовский район",
                "Location": "Ленинский проспект, дом 86"
            },
            "geometry": { "type": "Point", "coordinates": [37.529599, 55.678088] }
        },
        {
            "type": "Feature",
            "properties": {
                "Name": "Пункт проката велосипедов № 346",
                "StationCapacity": 12,
                "AdmArea": "Южный административный округ",
                "District": "Донской район",
                "Location": "Ленинский пр-кт., д.27"
            },
            "geometry": { "type": "Point", "coordinates": [37.593068, 55.715984] }
        },
        {
            "type": "Feature",
            "properties": {
                "Name": "Пункт проката велосипедов № 387",
                "StationCapacity": 12,
                "AdmArea": "Юго-Западный административный округ",
                "District": "район Коньково",
                "Location": "станция метро \"Коньково\""
            },
            "geometry": { "type": "Point", "coordinates": [37.520416, 55.63376] }
        },
        {
            "type": "Feature",
            "properties": {
                "Name": "Пункт проката велосипедов № 321",
                "StationCapacity": 12,
                "AdmArea": "Юго-Западный административный округ",
                "District": "Ломоносовский район",
                "Location": "Ленинский проспект, дом 79"
            },
            "geometry": { "type": "Point", "coordinates": [37.54062, 55.68396] }
        },
        {
            "type": "Feature",
            "properties": {
                "Name": "Пункт проката велосипедов № 76",
                "StationCapacity": 16,
                "AdmArea": "Центральный административный округ",
                "District": "район Замоскворечье",
                "Location": "улица Пятницкая, дом 25, строение 1Д"
            },
            "geometry": { "type": "Point", "coordinates": [37.628651, 55.741485] }
        },
        {
            "type": "Feature",
            "properties": {
                "Name": "Пункт проката велосипедов № 432",
                "StationCapacity": 12,
                "AdmArea": "Центральный административный округ",
                "District": "Мещанский район",
                "Location": "улица Щепкина, дом 61/2 строение 22"
            },
            "geometry": { "type": "Point", "coordinates": [37.629087, 55.788602] }
        },
        {
            "type": "Feature",
            "properties": {
                "Name": "Пункт проката велосипедов № 431",
                "StationCapacity": 12,
                "AdmArea": "Центральный административный округ",
                "District": "Мещанский район",
                "Location": "Олимпийский проспект, дом 22"
            },
            "geometry": { "type": "Point", "coordinates": [37.62249, 55.786079] }
        },
        {
            "type": "Feature",
            "properties": {
                "Name": "Пункт проката велосипедов № 229",
                "StationCapacity": 12,
                "AdmArea": "Центральный административный округ",
                "District": "Пресненский район",
                "Location": "Звенигородское шоссе, дом 7"
            },
            "geometry": { "type": "Point", "coordinates": [37.552939, 55.764236] }
        },
        {
            "type": "Feature",
            "properties": {
                "Name": "Пункт проката велосипедов № 228",
                "StationCapacity": 12,
                "AdmArea": "Центральный административный округ",
                "District": "Пресненский район",
                "Location": "Шмитовский проезд, дом 16, строение 2"
            },
            "geometry": { "type": "Point", "coordinates": [37.545641, 55.75749] }
        },
        {
            "type": "Feature",
            "properties": {
                "Name": "Пункт проката велосипедов № 354",
                "StationCapacity": 12,
                "AdmArea": "Западный административный округ",
                "District": "район Раменки",
                "Location": "Ломоносовский проспект, дом 43/40"
            },
            "geometry": { "type": "Point", "coordinates": [37.507289, 55.710413] }
        },
        {
            "type": "Feature",
            "properties": {
                "Name": "Пункт проката велосипедов № 146",
                "StationCapacity": 12,
                "AdmArea": "Центральный административный округ",
                "District": "Таганский район",
                "Location": "Радищевская Верхняя ул., д.22"
            },
            "geometry": { "type": "Point", "coordinates": [37.653802, 55.742338] }
        },
        {
            "type": "Feature",
            "properties": {
                "Name": "Пункт проката велосипедов № 361",
                "StationCapacity": 12,
                "AdmArea": "Юго-Западный административный округ",
                "District": "Гагаринский район",
                "Location": "Ломоносовкий проспект, дом 2/62, строение 8"
            },
            "geometry": { "type": "Point", "coordinates": [37.552045, 55.684712] }
        },
        {
            "type": "Feature",
            "properties": {
                "Name": "Пункт проката велосипедов № 47",
                "StationCapacity": 12,
                "AdmArea": "Центральный административный округ",
                "District": "Тверской район",
                "Location": "Каретный Ряд ул., д.3, стр.11"
            },
            "geometry": { "type": "Point", "coordinates": [37.611362, 55.770122] }
        },
        {
            "type": "Feature",
            "properties": {
                "Name": "Пункт проката велосипедов № 462",
                "StationCapacity": 12,
                "AdmArea": "Центральный административный округ",
                "District": "Красносельский район",
                "Location": "Рязанский проезд, Комсомольская площадь, дом 2"
            },
            "geometry": { "type": "Point", "coordinates": [37.65459, 55.772518] }
        },
        {
            "type": "Feature",
            "properties": {
                "Name": "Пункт проката велосипедов № 440",
                "StationCapacity": 12,
                "AdmArea": "Центральный административный округ",
                "District": "Мещанский район",
                "Location": "Проспект мира, дом 40"
            },
            "geometry": { "type": "Point", "coordinates": [37.633319, 55.779945] }
        },
        {
            "type": "Feature",
            "properties": {
                "Name": "Пункт проката велосипедов № 430",
                "StationCapacity": 12,
                "AdmArea": "Центральный административный округ",
                "District": "Мещанский район",
                "Location": "Олимпийский проспект, дом 14"
            },
            "geometry": { "type": "Point", "coordinates": [37.622634, 55.779102] }
        },
        {
            "type": "Feature",
            "properties": {
                "Name": "Пункт проката велосипедов № 411",
                "StationCapacity": 12,
                "AdmArea": "Центральный административный округ",
                "District": "Тверской район",
                "Location": "улица Селезневская, дом 29, строение 1"
            },
            "geometry": { "type": "Point", "coordinates": [37.613739, 55.78141] }
        },
        {
            "type": "Feature",
            "properties": {
                "Name": "Пункт проката велосипедов № 420",
                "StationCapacity": 12,
                "AdmArea": "Центральный административный округ",
                "District": "Мещанский район",
                "Location": "улица Советской Армии, дом 2, строение 1"
            },
            "geometry": { "type": "Point", "coordinates": [37.616504, 55.785259] }
        },
        {
            "type": "Feature",
            "properties": {
                "Name": "Пункт проката велосипедов № 236",
                "StationCapacity": 12,
                "AdmArea": "Центральный административный округ",
                "District": "Пресненский район",
                "Location": "улица Малая Грузинская, дом 19/2"
            },
            "geometry": { "type": "Point", "coordinates": [37.572071, 55.765613] }
        },
        {
            "type": "Feature",
            "properties": {
                "Name": "Пункт проката велосипедов № 374",
                "StationCapacity": 12,
                "AdmArea": "Юго-Западный административный округ",
                "District": "район Черёмушки",
                "Location": "улица Обручева, дом 33 А"
            },
            "geometry": { "type": "Point", "coordinates": [37.552978, 55.651252] }
        },
        {
            "type": "Feature",
            "properties": {
                "Name": "Пункт проката велосипедов № 375",
                "StationCapacity": 12,
                "AdmArea": "Юго-Западный административный округ",
                "District": "район Черёмушки",
                "Location": "улица Обручева, дом 65/54"
            },
            "geometry": { "type": "Point", "coordinates": [37.564201, 55.650211] }
        },
        {
            "type": "Feature",
            "properties": {
                "Name": "Пункт проката велосипедов № 386",
                "StationCapacity": 12,
                "AdmArea": "Юго-Западный административный округ",
                "District": "район Коньково",
                "Location": "улица Островитянова, дом 29/120"
            },
            "geometry": { "type": "Point", "coordinates": [37.519916, 55.634468] }
        },
        {
            "type": "Feature",
            "properties": {
                "Name": "Пункт проката велосипедов № 333",
                "StationCapacity": 12,
                "AdmArea": "Юго-Западный административный округ",
                "District": "Обручевский район",
                "Location": "улица Профсоюзная, дом 61 А"
            },
            "geometry": { "type": "Point", "coordinates": [37.539688, 55.656261] }
        },
        {
            "type": "Feature",
            "properties": {
                "Name": "Пункт проката велосипедов № 371",
                "StationCapacity": 12,
                "AdmArea": "Юго-Западный административный округ",
                "District": "район Черёмушки",
                "Location": "улица Новочеремушкинская, дом 71/32"
            },
            "geometry": { "type": "Point", "coordinates": [37.559341, 55.660896] }
        },
        {
            "type": "Feature",
            "properties": {
                "Name": "Пункт проката велосипедов № 422",
                "StationCapacity": 12,
                "AdmArea": "Северо-Восточный административный округ",
                "District": "район Марьина Роща",
                "Location": "улица Советской Армии, дом 17/52"
            },
            "geometry": { "type": "Point", "coordinates": [37.616046, 55.792575] }
        },
        {
            "type": "Feature",
            "properties": {
                "Name": "Пункт проката велосипедов № 415",
                "StationCapacity": 12,
                "AdmArea": "Центральный административный округ",
                "District": "Тверской район",
                "Location": "улица Сущевский Вал, дом 2"
            },
            "geometry": { "type": "Point", "coordinates": [37.590904, 55.791374] }
        },
        {
            "type": "Feature",
            "properties": {
                "Name": "Пункт проката велосипедов № 347",
                "StationCapacity": 12,
                "AdmArea": "Юго-Западный административный округ",
                "District": "Академический район",
                "Location": "улица Шверника, дом 13, корпус 1"
            },
            "geometry": { "type": "Point", "coordinates": [37.589305, 55.691394] }
        },
        {
            "type": "Feature",
            "properties": {
                "Name": "Пункт проката велосипедов № 461",
                "StationCapacity": 12,
                "AdmArea": "Центральный административный округ",
                "District": "Красносельский район",
                "Location": "Орликов переулок, дом 3, строение 7"
            },
            "geometry": { "type": "Point", "coordinates": [37.646671, 55.771965] }
        },
        {
            "type": "Feature",
            "properties": {
                "Name": "Пункт проката велосипедов № 78",
                "StationCapacity": 12,
                "AdmArea": "Центральный административный округ",
                "District": "район Замоскворечье",
                "Location": "улица Пятницкая, дом 48, строение 1"
            },
            "geometry": { "type": "Point", "coordinates": [37.627651, 55.735363] }
        },
        {
            "type": "Feature",
            "properties": {
                "Name": "Пункт проката велосипедов № 318",
                "StationCapacity": 12,
                "AdmArea": "Юго-Западный административный округ",
                "District": "Гагаринский район",
                "Location": "Ленинский проспект, дом 45"
            },
            "geometry": { "type": "Point", "coordinates": [37.57299, 55.70325] }
        },
        {
            "type": "Feature",
            "properties": {
                "Name": "Пункт проката велосипедов № 385",
                "StationCapacity": 12,
                "AdmArea": "Юго-Западный административный округ",
                "District": "Обручевский район",
                "Location": "улица Островитянова, дом 7"
            },
            "geometry": { "type": "Point", "coordinates": [37.495132, 55.643985] }
        },
        {
            "type": "Feature",
            "properties": {
                "Name": "Пункт проката велосипедов № 353",
                "StationCapacity": 12,
                "AdmArea": "Южный административный округ",
                "District": "Нагорный район",
                "Location": "улица Криворожская, дом 33 Г"
            },
            "geometry": { "type": "Point", "coordinates": [37.608993, 55.671798] }
        },
        {
            "type": "Feature",
            "properties": {
                "Name": "Пункт проката велосипедов № 470",
                "StationCapacity": 12,
                "AdmArea": "Северо-Восточный административный округ",
                "District": "Останкинский район",
                "Location": "улица Академика Королева, дом 8 А"
            },
            "geometry": { "type": "Point", "coordinates": [37.6236, 55.821685] }
        },
        {
            "type": "Feature",
            "properties": {
                "Name": "Пункт проката велосипедов № 471",
                "StationCapacity": 12,
                "AdmArea": "Северо-Восточный административный округ",
                "District": "Останкинский район",
                "Location": "улица Академика Королева, дом 12 Б"
            },
            "geometry": { "type": "Point", "coordinates": [37.610488, 55.821743] }
        },
        {
            "type": "Feature",
            "properties": {
                "Name": "Пункт проката велосипедов № 472",
                "StationCapacity": 12,
                "AdmArea": "Северо-Восточный административный округ",
                "District": "Останкинский район",
                "Location": "Звездный бульвар, дом 18/1"
            },
            "geometry": { "type": "Point", "coordinates": [37.630187, 55.815486] }
        },
        {
            "type": "Feature",
            "properties": {
                "Name": "Пункт проката велосипедов № 417",
                "StationCapacity": 12,
                "AdmArea": "Северо-Восточный административный округ",
                "District": "район Марьина Роща",
                "Location": "улица Шереметьевская, дом 2"
            },
            "geometry": { "type": "Point", "coordinates": [37.617156, 55.793457] }
        },
        {
            "type": "Feature",
            "properties": {
                "Name": "Пункт проката велосипедов № 450",
                "StationCapacity": 12,
                "AdmArea": "Северо-Восточный административный округ",
                "District": "район Ростокино",
                "Location": "улица Сергея Эйзенштейна, дом 8"
            },
            "geometry": { "type": "Point", "coordinates": [37.637439, 55.833338] }
        },
        {
            "type": "Feature",
            "properties": {
                "Name": "Пункт проката велосипедов № 446",
                "StationCapacity": 12,
                "AdmArea": "Северо-Восточный административный округ",
                "District": "район Ростокино",
                "Location": "Проспект Мира, дом 163"
            },
            "geometry": { "type": "Point", "coordinates": [37.654231, 55.834408] }
        },
        {
            "type": "Feature",
            "properties": {
                "Name": "Пункт проката велосипедов № 444",
                "StationCapacity": 12,
                "AdmArea": "Северо-Восточный административный округ",
                "District": "Останкинский район",
                "Location": "Проспект Мира, дом 111 А"
            },
            "geometry": { "type": "Point", "coordinates": [37.638457, 55.819404] }
        },
        {
            "type": "Feature",
            "properties": {
                "Name": "Пункт проката велосипедов № 464",
                "StationCapacity": 33,
                "AdmArea": "Северо-Восточный административный округ",
                "District": "Останкинский район",
                "Location": "улица Ботаническая, дом 4, строение 3"
            },
            "geometry": { "type": "Point", "coordinates": [37.601039, 55.830195] }
        },
        {
            "type": "Feature",
            "properties": {
                "Name": "Пункт проката велосипедов № 480",
                "StationCapacity": 12,
                "AdmArea": "Северо-Восточный административный округ",
                "District": "Бутырский район",
                "Location": "улица Яблочково, дом 18"
            },
            "geometry": { "type": "Point", "coordinates": [37.580688, 55.820725] }
        },
        {
            "type": "Feature",
            "properties": {
                "Name": "Пункт проката велосипедов № 481",
                "StationCapacity": 12,
                "AdmArea": "Северо-Восточный административный округ",
                "District": "Бутырский район",
                "Location": "улица Милашенкова, дом 12"
            },
            "geometry": { "type": "Point", "coordinates": [37.580408, 55.827897] }
        },
        {
            "type": "Feature",
            "properties": {
                "Name": "Пункт проката велосипедов № 469",
                "StationCapacity": 12,
                "AdmArea": "Северо-Восточный административный округ",
                "District": "Останкинский район",
                "Location": "Академика Королёва ул., д.15, к.2"
            },
            "geometry": { "type": "Point", "coordinates": [37.615739, 55.818916] }
        },
        {
            "type": "Feature",
            "properties": {
                "Name": "Пункт проката велосипедов № 482",
                "StationCapacity": 12,
                "AdmArea": "Северо-Восточный административный округ",
                "District": "Бутырский район",
                "Location": "улица Руставели, дом 13/12, корпус 1"
            },
            "geometry": { "type": "Point", "coordinates": [37.594597, 55.813304] }
        },
        {
            "type": "Feature",
            "properties": {
                "Name": "Пункт проката велосипедов № 410",
                "StationCapacity": 12,
                "AdmArea": "Центральный административный округ",
                "District": "Тверской район",
                "Location": "2-й Щемиловский переулок, дом 14/29"
            },
            "geometry": { "type": "Point", "coordinates": [37.608918, 55.778385] }
        },
        {
            "type": "Feature",
            "properties": {
                "Name": "Пункт проката велосипедов № 341",
                "StationCapacity": 12,
                "AdmArea": "Южный административный округ",
                "District": "Донской район",
                "Location": "улица Орджоникидзе, дом 11, строение 1/2"
            },
            "geometry": { "type": "Point", "coordinates": [37.594389, 55.709908] }
        },
        {
            "type": "Feature",
            "properties": {
                "Name": "Пункт проката велосипедов № 368",
                "StationCapacity": 12,
                "AdmArea": "Юго-Западный административный округ",
                "District": "район Зюзино",
                "Location": "Симферопольский бульвар, дом 4"
            },
            "geometry": { "type": "Point", "coordinates": [37.608093, 55.659191] }
        },
        {
            "type": "Feature",
            "properties": {
                "Name": "Пункт проката велосипедов № 466",
                "StationCapacity": 48,
                "AdmArea": "Северо-Восточный административный округ",
                "District": "Останкинский район",
                "Location": "Продольный проезд"
            },
            "geometry": { "type": "Point", "coordinates": [37.639128, 55.825361] }
        },
        {
            "type": "Feature",
            "properties": {
                "Name": "Пункт проката велосипедов № 71",
                "StationCapacity": 12,
                "AdmArea": "Центральный административный округ",
                "District": "район Замоскворечье",
                "Location": "Космодамианская наб., д.22, стр.1"
            },
            "geometry": { "type": "Point", "coordinates": [37.641452, 55.743213] }
        },
        {
            "type": "Feature",
            "properties": {
                "Name": "Пункт проката велосипедов № 451",
                "StationCapacity": 12,
                "AdmArea": "Северо-Восточный административный округ",
                "District": "район Ростокино",
                "Location": "улица Сельскохозяйственная, дом 17, корпус 1"
            },
            "geometry": { "type": "Point", "coordinates": [37.636551, 55.837144] }
        },
        {
            "type": "Feature",
            "properties": {
                "Name": "Пункт проката велосипедов № 443",
                "StationCapacity": 12,
                "AdmArea": "Северо-Восточный административный округ",
                "District": "Останкинский район",
                "Location": "Проспект Мира, дом 97"
            },
            "geometry": { "type": "Point", "coordinates": [37.636617, 55.808565] }
        },
        {
            "type": "Feature",
            "properties": {
                "Name": "Пункт проката велосипедов № 80",
                "StationCapacity": 12,
                "AdmArea": "Центральный административный округ",
                "District": "район Замоскворечье",
                "Location": "улица Пятницкая, дом 2/38"
            },
            "geometry": { "type": "Point", "coordinates": [37.626464, 55.745814] }
        },
        {
            "type": "Feature",
            "properties": {
                "Name": "Пункт проката велосипедов № 81",
                "StationCapacity": 12,
                "AdmArea": "Центральный административный округ",
                "District": "район Замоскворечье",
                "Location": "Татарская Большая ул., д.19/13"
            },
            "geometry": { "type": "Point", "coordinates": [37.633322, 55.739852] }
        },
        {
            "type": "Feature",
            "properties": {
                "Name": "Пункт проката велосипедов № 84",
                "StationCapacity": 12,
                "AdmArea": "Центральный административный округ",
                "District": "район Замоскворечье",
                "Location": "улица Большая Татарская, дом 35, строение 3"
            },
            "geometry": { "type": "Point", "coordinates": [37.635113, 55.737552] }
        },
        {
            "type": "Feature",
            "properties": {
                "Name": "Пункт проката велосипедов № 388",
                "StationCapacity": 12,
                "AdmArea": "Южный административный округ",
                "District": "Нагорный район",
                "Location": "Варшавское шоссе, дом 100"
            },
            "geometry": { "type": "Point", "coordinates": [37.619266, 55.645199] }
        },
        {
            "type": "Feature",
            "properties": {
                "Name": "Пункт проката велосипедов № 389",
                "StationCapacity": 12,
                "AdmArea": "Западный административный округ",
                "District": "район Тропарёво-Никулино",
                "Location": "Улица 26-ти Бакинских Комиссаров, дом 2 Б"
            },
            "geometry": { "type": "Point", "coordinates": [37.495249, 55.655932] }
        },
        {
            "type": "Feature",
            "properties": {
                "Name": "Пункт проката велосипедов № 60",
                "StationCapacity": 12,
                "AdmArea": "Центральный административный округ",
                "District": "Красносельский район",
                "Location": "Мясницкая ул., д.11\n"
            },
            "geometry": { "type": "Point", "coordinates": [37.633093, 55.76169] }
        },
        {
            "type": "Feature",
            "properties": {
                "Name": "Пункт проката велосипедов № 390",
                "StationCapacity": 12,
                "AdmArea": "Юго-Западный административный округ",
                "District": "Обручевский район",
                "Location": "улица Академика Волгина, дом 6"
            },
            "geometry": { "type": "Point", "coordinates": [37.518875, 55.652432] }
        },
        {
            "type": "Feature",
            "properties": {
                "Name": "Пункт проката велосипедов № 393",
                "StationCapacity": 12,
                "AdmArea": "Юго-Западный административный округ",
                "District": "район Черёмушки",
                "Location": "Нахимовский проспект, дом 45, строение 1"
            },
            "geometry": { "type": "Point", "coordinates": [37.571113, 55.674873] }
        },
        {
            "type": "Feature",
            "properties": {
                "Name": "Пункт проката велосипедов № 391",
                "StationCapacity": 12,
                "AdmArea": "Юго-Западный административный округ",
                "District": "район Зюзино",
                "Location": "Нахимовский проспект, дом 11, корпус 1"
            },
            "geometry": { "type": "Point", "coordinates": [37.606796, 55.663717] }
        },
        {
            "type": "Feature",
            "properties": {
                "Name": "Пункт проката велосипедов № 395",
                "StationCapacity": 12,
                "AdmArea": "Юго-Западный административный округ",
                "District": "Академический район",
                "Location": "улица Дмитрия Ульянова, дом 32 А"
            },
            "geometry": { "type": "Point", "coordinates": [37.582777, 55.684571] }
        },
        {
            "type": "Feature",
            "properties": {
                "Name": "Пункт проката велосипедов № 396",
                "StationCapacity": 12,
                "AdmArea": "Юго-Западный административный округ",
                "District": "район Котловка",
                "Location": "улица Дмитрия Ульянова, дом 46"
            },
            "geometry": { "type": "Point", "coordinates": [37.595485, 55.679562] }
        },
        {
            "type": "Feature",
            "properties": {
                "Name": "Пункт проката велосипедов № 376",
                "StationCapacity": 12,
                "AdmArea": "Юго-Западный административный округ",
                "District": "район Зюзино",
                "Location": "Балаклавский проспект, дом 34 корпус 1"
            },
            "geometry": { "type": "Point", "coordinates": [37.582171, 55.645488] }
        },
        {
            "type": "Feature",
            "properties": {
                "Name": "Пункт проката велосипедов № 381",
                "StationCapacity": 12,
                "AdmArea": "Юго-Западный административный округ",
                "District": "Обручевский район",
                "Location": "улица Академика Волгина, дом 21"
            },
            "geometry": { "type": "Point", "coordinates": [37.512929, 55.648343] }
        },
        {
            "type": "Feature",
            "properties": {
                "Name": "Пункт проката велосипедов № 463",
                "StationCapacity": 12,
                "AdmArea": "Центральный административный округ",
                "District": "Красносельский район",
                "Location": "улица Каланчевская, дом 10, строение 3"
            },
            "geometry": { "type": "Point", "coordinates": [37.650337, 55.776218] }
        },
        {
            "type": "Feature",
            "properties": {
                "Name": "Пункт проката велосипедов № 423",
                "StationCapacity": 12,
                "AdmArea": "Северо-Восточный административный округ",
                "District": "район Марьина Роща",
                "Location": "улица Шереметьевская, дом 27"
            },
            "geometry": { "type": "Point", "coordinates": [37.61539, 55.802913] }
        },
        {
            "type": "Feature",
            "properties": {
                "Name": "Пункт проката велосипедов № 339",
                "StationCapacity": 12,
                "AdmArea": "Юго-Западный административный округ",
                "District": "Обручевский район",
                "Location": "улица Обручева, дом 16, корпус 1"
            },
            "geometry": { "type": "Point", "coordinates": [37.514881, 55.658798] }
        },
        {
            "type": "Feature",
            "properties": {
                "Name": "Пункт проката велосипедов № 325",
                "StationCapacity": 12,
                "AdmArea": "Юго-Западный административный округ",
                "District": "район Зюзино",
                "Location": "улица Болотниковская, дом 34, корпус 1"
            },
            "geometry": { "type": "Point", "coordinates": [37.594161, 55.659076] }
        },
        {
            "type": "Feature",
            "properties": {
                "Name": "Пункт проката велосипедов № 326",
                "StationCapacity": 12,
                "AdmArea": "Юго-Западный административный округ",
                "District": "район Зюзино",
                "Location": "улица Каховка, дом 10/12, корпус 1"
            },
            "geometry": { "type": "Point", "coordinates": [37.580711, 55.653507] }
        },
        {
            "type": "Feature",
            "properties": {
                "Name": "Пункт проката велосипедов № 338",
                "StationCapacity": 12,
                "AdmArea": "Юго-Западный административный округ",
                "District": "Обручевский район",
                "Location": "пересечение улицы Новаторов и улицы Воронцовские Пруды"
            },
            "geometry": { "type": "Point", "coordinates": [37.526493, 55.667076] }
        },
        {
            "type": "Feature",
            "properties": {
                "Name": "Пункт проката велосипедов № 309",
                "StationCapacity": 12,
                "AdmArea": "Юго-Западный административный округ",
                "District": "район Черёмушки",
                "Location": "улица Болотниковская, парк 70-летия Победы"
            },
            "geometry": { "type": "Point", "coordinates": [37.571292, 55.665069] }
        },
        {
            "type": "Feature",
            "properties": {
                "Name": "Пункт проката велосипедов № 337",
                "StationCapacity": 12,
                "AdmArea": "Юго-Западный административный округ",
                "District": "Ломоносовский район",
                "Location": "улица Академика Пилюгина, дом 18"
            },
            "geometry": { "type": "Point", "coordinates": [37.534259, 55.668342] }
        },
        {
            "type": "Feature",
            "properties": {
                "Name": "Пункт проката велосипедов № 328",
                "StationCapacity": 12,
                "AdmArea": "Юго-Западный административный округ",
                "District": "район Зюзино",
                "Location": "Балаклавский проспект, дом 16"
            },
            "geometry": { "type": "Point", "coordinates": [37.60453, 55.641757] }
        },
        {
            "type": "Feature",
            "properties": {
                "Name": "Пункт проката велосипедов № 307",
                "StationCapacity": 12,
                "AdmArea": "Юго-Западный административный округ",
                "District": "Гагаринский район",
                "Location": "улица Вавилова, дом 24"
            },
            "geometry": { "type": "Point", "coordinates": [37.577945, 55.701175] }
        },
        {
            "type": "Feature",
            "properties": {
                "Name": "Пункт проката велосипедов № 250",
                "StationCapacity": 33,
                "AdmArea": "Центральный административный округ",
                "District": "Пресненский район",
                "Location": "Пресненская набережная, дом 6, строение 2"
            },
            "geometry": { "type": "Point", "coordinates": [37.539165, 55.747509] }
        },
        {
            "type": "Feature",
            "properties": {
                "Name": "Пункт проката велосипедов № 251",
                "StationCapacity": 12,
                "AdmArea": "Центральный административный округ",
                "District": "Пресненский район",
                "Location": "1-й Красногвардейский проезд, дом 13, строение 1"
            },
            "geometry": { "type": "Point", "coordinates": [37.540904, 55.751911] }
        },
        {
            "type": "Feature",
            "properties": {
                "Name": "Пункт проката велосипедов № 348",
                "StationCapacity": 12,
                "AdmArea": "Западный административный округ",
                "District": "район Раменки",
                "Location": "улица Мосфильмовская, дом 17-25"
            },
            "geometry": { "type": "Point", "coordinates": [37.517116, 55.716167] }
        },
        {
            "type": "Feature",
            "properties": {
                "Name": "Пункт проката велосипедов № 416",
                "StationCapacity": 12,
                "AdmArea": "Северо-Восточный административный округ",
                "District": "район Марьина Роща",
                "Location": "улица Сущевский Вал, дом 16, строение 1"
            },
            "geometry": { "type": "Point", "coordinates": [37.602809, 55.792434] }
        },
        {
            "type": "Feature",
            "properties": {
                "Name": "Пункт проката велосипедов № 85",
                "StationCapacity": 12,
                "AdmArea": "Центральный административный округ",
                "District": "Таганский район",
                "Location": "Котельническая набережная, дом 1/15квк"
            },
            "geometry": { "type": "Point", "coordinates": [37.645381, 55.748229] }
        },
        {
            "type": "Feature",
            "properties": {
                "Name": "Пункт проката велосипедов № 392",
                "StationCapacity": 12,
                "AdmArea": "Западный административный округ",
                "District": "район Раменки",
                "Location": "Улофа Пальме ул., д.1"
            },
            "geometry": { "type": "Point", "coordinates": [37.513749, 55.717872] }
        },
        {
            "type": "Feature",
            "properties": {
                "Name": "Пункт проката велосипедов № 335",
                "StationCapacity": 12,
                "AdmArea": "Юго-Западный административный округ",
                "District": "Обручевский район",
                "Location": "улица Профсоюзная, дом 82, корпус 1"
            },
            "geometry": { "type": "Point", "coordinates": [37.539333, 55.656261] }
        },
        {
            "type": "Feature",
            "properties": {
                "Name": "Пункт проката велосипедов № 394",
                "StationCapacity": 12,
                "AdmArea": "Юго-Западный административный округ",
                "District": "район Черёмушки",
                "Location": "Нахимовский проспект, дом 51/21"
            },
            "geometry": { "type": "Point", "coordinates": [37.562854, 55.67741] }
        },
        {
            "type": "Feature",
            "properties": {
                "Name": "Пункт проката велосипедов № 439",
                "StationCapacity": 12,
                "AdmArea": "Центральный административный округ",
                "District": "Мещанский район",
                "Location": "Проспект Мира, дом 11"
            },
            "geometry": { "type": "Point", "coordinates": [37.632133, 55.776031] }
        },
        {
            "type": "Feature",
            "properties": {
                "Name": "Пункт проката велосипедов № 465",
                "StationCapacity": 24,
                "AdmArea": "Северо-Восточный административный округ",
                "District": "Останкинский район",
                "Location": "улица 1-я Останкинская, дом 1 А"
            },
            "geometry": { "type": "Point", "coordinates": [37.617248, 55.824314] }
        },
        {
            "type": "Feature",
            "properties": {
                "Name": "Пункт проката велосипедов № 407",
                "StationCapacity": 12,
                "AdmArea": "Центральный административный округ",
                "District": "Тверской район",
                "Location": "улица Селезневская, дом 28"
            },
            "geometry": { "type": "Point", "coordinates": [37.607856, 55.780651] }
        },
        {
            "type": "Feature",
            "properties": {
                "Name": "Пункт проката велосипедов № 484",
                "StationCapacity": 12,
                "AdmArea": "Северо-Восточный административный округ",
                "District": "Бутырский район",
                "Location": "улица Руставели, дом 6, корпус 5"
            },
            "geometry": { "type": "Point", "coordinates": [37.588375, 55.812377] }
        },
        {
            "type": "Feature",
            "properties": {
                "Name": "Пункт проката велосипедов № 399",
                "StationCapacity": 12,
                "AdmArea": "Южный административный округ",
                "District": "Нагорный район",
                "Location": "Симферопольский бульвар, дом 15, корпус 5"
            },
            "geometry": { "type": "Point", "coordinates": [37.605651, 55.653751] }
        },
        {
            "type": "Feature",
            "properties": {
                "Name": "Пункт проката велосипедов № 473",
                "StationCapacity": 12,
                "AdmArea": "Северо-Восточный административный округ",
                "District": "Останкинский район",
                "Location": "улица академика Королева, дом 12А"
            },
            "geometry": { "type": "Point", "coordinates": [37.604133, 55.821704] }
        },
        {
            "type": "Feature",
            "properties": {
                "Name": "Пункт проката велосипедов № 474",
                "StationCapacity": 12,
                "AdmArea": "Северо-Восточный административный округ",
                "District": "Останкинский район",
                "Location": "1-я Останкинская улица, дом 55"
            },
            "geometry": { "type": "Point", "coordinates": [37.634063, 55.82344] }
        },
        {
            "type": "Feature",
            "properties": {
                "Name": "Пункт проката велосипедов № 445",
                "StationCapacity": 12,
                "AdmArea": "Северо-Восточный административный округ",
                "District": "Останкинский район",
                "Location": "Улица Сергея Эйзенштейна, дом 1"
            },
            "geometry": { "type": "Point", "coordinates": [37.64722, 55.827526] }
        },
        {
            "type": "Feature",
            "properties": {
                "Name": "Пункт проката велосипедов № 252",
                "StationCapacity": 8,
                "AdmArea": "Центральный административный округ",
                "District": "район Хамовники",
                "Location": "улица Льва Толстого, дом 21"
            },
            "geometry": { "type": "Point", "coordinates": [37.586429, 55.734264] }
        },
        {
            "type": "Feature",
            "properties": {
                "Name": "Пункт проката велосипедов № 408",
                "StationCapacity": 12,
                "AdmArea": "Центральный административный округ",
                "District": "Тверской район",
                "Location": "улица Лесная , дом 63/43 строение 2"
            },
            "geometry": { "type": "Point", "coordinates": [37.59643, 55.784342] }
        },
        {
            "type": "Feature",
            "properties": {
                "Name": "Пункт проката велосипедов № 329",
                "StationCapacity": 12,
                "AdmArea": "Юго-Западный административный округ",
                "District": "Ломоносовский район",
                "Location": "улица Гарибальди, дом 6, корпус 1"
            },
            "geometry": { "type": "Point", "coordinates": [37.537874, 55.675732] }
        },
        {
            "type": "Feature",
            "properties": {
                "Name": "Пункт проката велосипедов № 453",
                "StationCapacity": 24,
                "AdmArea": "Северо-Восточный административный округ",
                "District": "район Марфино",
                "Location": "станция метро «Владыкино»"
            },
            "geometry": { "type": "Point", "coordinates": [37.589905, 55.846023] }
        },
        {
            "type": "Feature",
            "properties": {
                "Name": "Пункт проката велосипедов № 452",
                "StationCapacity": 12,
                "AdmArea": "Северо-Восточный административный округ",
                "District": "район Ростокино",
                "Location": "станция метро «Ботанический сад»"
            },
            "geometry": { "type": "Point", "coordinates": [37.63701, 55.843133] }
        },
        {
            "type": "Feature",
            "properties": {
                "Name": "Пункт проката велосипедов № 485",
                "StationCapacity": 12,
                "AdmArea": "Северный административный округ",
                "District": "Тимирязевский район",
                "Location": "Дмитровское шоссе, дом 13 А"
            },
            "geometry": { "type": "Point", "coordinates": [37.574114, 55.819238] }
        },
        {
            "type": "Feature",
            "properties": {
                "Name": "Пункт проката велосипедов № 157",
                "StationCapacity": 44,
                "AdmArea": "Центральный административный округ",
                "District": "район Якиманка",
                "Location": "улица Крымский вал, дом 9, строение 1"
            },
            "geometry": { "type": "Point", "coordinates": [37.605051, 55.731962] }
        },
        {
            "type": "Feature",
            "properties": {
                "Name": "Пункт проката велосипедов № 27",
                "StationCapacity": 12,
                "AdmArea": "Центральный административный округ",
                "District": "Пресненский район",
                "Location": "Большая Никитская улица, дом 13\n"
            },
            "geometry": { "type": "Point", "coordinates": [37.60477, 55.756744] }
        },
        {
            "type": "Feature",
            "properties": {
                "Name": "Пункт проката велосипедов № 245",
                "StationCapacity": 36,
                "AdmArea": "Западный административный округ",
                "District": "район Дорогомилово",
                "Location": "площадь Европы, дом 2"
            },
            "geometry": { "type": "Point", "coordinates": [37.56924, 55.742321] }
        },
        {
            "type": "Feature",
            "properties": {
                "Name": "Пункт проката велосипедов № 33",
                "StationCapacity": 10,
                "AdmArea": "Центральный административный округ",
                "District": "Тверской район",
                "Location": "Столешников переулок, дом 11"
            },
            "geometry": { "type": "Point", "coordinates": [37.617189, 55.763147] }
        },
        {
            "type": "Feature",
            "properties": {
                "Name": "Пункт проката велосипедов № 483",
                "StationCapacity": 32,
                "AdmArea": "Центральный административный округ",
                "District": "Красносельский район",
                "Location": "Комсомольская площадь, дом 5"
            },
            "geometry": { "type": "Point", "coordinates": [37.659304, 55.776629] }
        },
        {
            "type": "Feature",
            "properties": {
                "Name": "Пункт проката велосипедов № 342",
                "StationCapacity": 12,
                "AdmArea": "Западный административный округ",
                "District": "район Раменки",
                "Location": "улица Мосфильмовская, дом 1, строение 4"
            },
            "geometry": { "type": "Point", "coordinates": [37.529504, 55.723348] }
        },